city_ascii,city,iso2,iso3,country,lat,lng,admin_name,capital,population,id
A Coruna,A Coruña,ES,ESP,Spain,43.3667,-8.3833,Galicia,minor,245468,1724417375
Aachen,Aachen,DE,DEU,Germany,50.7762,6.0838,North Rhine-Westphalia,minor,248960,1276805572
Aadorf,Aadorf,CH,CHE,Switzerland,47.4939,8.8975,Thurgau,,9036,1756022542
Aalborg,Aalborg,DK,DNK,Denmark,57.0337,9.9166,Nordjylland,admin,122219,1208789278
Aalen,Aalen,DE,DEU,Germany,48.8372,10.0936,Baden-Württemberg,minor,68361,1276757787
Aalsmeer,Aalsmeer,NL,NLD,Netherlands,52.2639,4.7625,Noord-Holland,minor,31728,1528899853
Aalst,Aalst,BE,BEL,Belgium,50.9383,4.0392,Flanders,minor,85715,1056695813
Aalten,Aalten,NL,NLD,Netherlands,51.9250,6.5808,Gelderland,minor,27011,1528326020
Aanekoski,Äänekoski,FI,FIN,Finland,62.6042,25.7264,Keski-Suomi,minor,19919,1246710490
Aarau,Aarau,CH,CHE,Switzerland,47.3923,8.0446,Aargau,admin,21268,1756722157
Aarburg,Aarburg,CH,CHE,Switzerland,47.3206,7.9014,Aargau,,8068,1756916635
Aarhus,Aarhus,DK,DNK,Denmark,56.1572,10.2107,Midtjylland,minor,237551,1208841031
Aarschot,Aarschot,BE,BEL,Belgium,50.9842,4.8333,Flanders,,29965,1056740173
Aartselaar,Aartselaar,BE,BEL,Belgium,51.1333,4.3869,Flanders,,14304,1056119316
Aasiaat,Aasiaat,GL,GRL,Greenland,68.7097,-52.8694,Qaasuitsup,admin,3069,1304194714
Aba,Aba,NG,NGA,Nigeria,5.1167,7.3667,Abia,minor,1530000,1566262000
Abadan,Abadan,TM,TKM,Turkmenistan,38.0517,58.2100,Ahal,,40813,1795394170
Abadia dos Dourados,Abadia dos Dourados,BR,BRA,Brazil,-18.4864,-47.4033,Minas Gerais,,6972,1076963070
Abadiania,Abadiânia,BR,BRA,Brazil,-16.2039,-48.7069,Goiás,,15757,1076524654
Abadiano Celayeta,Abadiano Celayeta,ES,ESP,Spain,43.1525,-2.6075,Basque Country,,7618,1724703143
Abadla,Abadla,DZ,DZA,Algeria,31.0167,-2.7333,Béchar,,14364,1012262770
Abadou,Abadou,MA,MAR,Morocco,31.5797,-7.3122,Marrakech-Safi,,10602,1504229584
Abaete,Abaeté,BR,BRA,Brazil,-19.1583,-45.4522,Minas Gerais,,800000,1076413528
Abaetetuba,Abaetetuba,BR,BRA,Brazil,-1.7178,-48.8828,Pará,,151934,1076974632
Abai,Abaí,PY,PRY,Paraguay,-26.0296,-55.9400,Caazapá,,3024,1600189926
Abaiara,Abaiara,BR,BRA,Brazil,-7.3589,-39.0458,Ceará,,11357,1076855645
Abaira,Abaíra,BR,BRA,Brazil,-13.2500,-41.6639,Bahia,,9226,1076572454
Abakaliki,Abakaliki,NG,NGA,Nigeria,6.3249,8.1137,Ebonyi,admin,,1566879878
Abakan,Abakan,RU,RUS,Russia,53.7167,91.4167,Khakasiya,admin,181709,1643946203
Abalessa,Abalessa,DZ,DZA,Algeria,22.8900,4.8472,Tamanrasset,,9163,1012479386
Abancay,Abancay,PE,PER,Peru,-13.6333,-72.8833,Apurímac,admin,72277,1604782074
Abanilla,Abanilla,ES,ESP,Spain,38.2072,-1.0414,Murcia,,6116,1724139404
Abano Terme,Abano Terme,IT,ITA,Italy,45.3619,11.7924,Veneto,,20101,1380340471
Abaran,Abarán,ES,ESP,Spain,38.2031,-1.4003,Murcia,,13066,1724553721
Abare,Abaré,BR,BRA,Brazil,-8.7208,-39.1150,Bahia,,19574,1076490247
Abarkuh,Abarkūh,IR,IRN,Iran,31.1289,53.2822,Yazd,minor,27524,1364624357
Abashiri,Abashiri,JP,JPN,Japan,44.0206,144.2736,Hokkaidō,,34640,1392204790
Abasolo,Abasolo,MX,MEX,Mexico,20.4511,-101.5289,Guanajuato,minor,27389,1484064616
Abasolo,Abasolo,MX,MEX,Mexico,24.0559,-98.3733,Tamaulipas,minor,11862,1484491384
Abatia,Abatiá,BR,BRA,Brazil,-23.3039,-50.3128,Paraná,,7408,1076371404
Abatskoye,Abatskoye,RU,RUS,Russia,56.2872,70.4542,Tyumenskaya Oblast’,,7959,1643144104
Abay,Abay,KZ,KAZ,Kazakhstan,49.6311,72.8539,Qaraghandy,,25550,1398353856
Abaza,Abaza,RU,RUS,Russia,52.6500,90.0833,Khakasiya,,15335,1643885049
Abbadia San Salvatore,Abbadia San Salvatore,IT,ITA,Italy,42.8831,11.6706,Tuscany,,6325,1380713134
Abbeville,Abbeville,FR,FRA,France,50.1058,1.8358,Hauts-de-France,minor,22837,1250376759
Abbeville,Abbeville,US,USA,United States,29.9750,-92.1265,Louisiana,,19470,1840014005
Abbeville,Abbeville,US,USA,United States,34.1787,-82.3774,South Carolina,,5019,1840013618
Abbiategrasso,Abbiategrasso,IT,ITA,Italy,45.4009,8.9185,Lombardy,,32737,1380022331
Abbotsford,Abbotsford,CA,CAN,Canada,49.0500,-122.3167,British Columbia,,141397,1124808029
Abbottabad,Abbottabad,PK,PAK,Pakistan,34.1500,73.2167,Khyber Pakhtunkhwa,minor,148587,1586788758
Abcoude,Abcoude,NL,NLD,Netherlands,52.2719,4.9703,Utrecht,,8791,1528930356
Abdul Hakim,Abdul Hakim,PK,PAK,Pakistan,30.5522,72.1278,Punjab,,51494,1586991157
Abdulino,Abdulino,RU,RUS,Russia,53.6833,53.6500,Orenburgskaya Oblast’,,19222,1643685252
Abdurahmoni Jomi,Abdurahmoni Jomí,TJ,TJK,Tajikistan,37.9794,68.6890,Khatlon,minor,8925,1762589864
Abeche,Abéché,TD,TCD,Chad,13.8331,20.8347,Ouaddaï,admin,76492,1148461151
Abegondo,Abegondo,ES,ESP,Spain,43.2067,-8.3100,Galicia,,5494,1724367044
Abel Figueiredo,Abel Figueiredo,BR,BRA,Brazil,-4.9539,-48.3928,Pará,,7179,1076762779
Abelardo Luz,Abelardo Luz,BR,BRA,Brazil,-26.5650,-52.3278,Santa Catarina,,17100,1076575845
Abenberg,Abenberg,DE,DEU,Germany,49.2406,10.9619,Bavaria,,5511,1276058642
Abengourou,Abengourou,CI,CIV,Côte d'Ivoire,6.7297,-3.4964,Comoé,admin,104020,1384295898
Abensberg,Abensberg,DE,DEU,Germany,48.8167,11.8501,Bavaria,,13946,1276501504
Abeokuta,Abeokuta,NG,NGA,Nigeria,7.1500,3.3500,Ogun,admin,888924,1566979497
Aberbargoed,Aberbargoed,GB,GBR,United Kingdom,51.6968,-3.2240,Caerphilly,,9184,1826650581
Abercarn,Abercarn,GB,GBR,United Kingdom,51.6490,-3.1350,Caerphilly,,5352,1826505762
Aberdare,Aberdare,GB,GBR,United Kingdom,51.7130,-3.4450,Rhondda Cynon Taff,,39550,1826427395
Aberdeen,Aberdeen,GB,GBR,United Kingdom,57.1500,-2.1100,Aberdeen City,,200680,1826324306
Aberdeen,Aberdeen,US,USA,United States,46.9757,-123.8094,Washington,,29609,1840018446
Aberdeen,Aberdeen,US,USA,United States,45.4646,-98.4680,South Dakota,,28257,1840002032
Aberdeen,Aberdeen,US,USA,United States,40.4165,-74.2249,New Jersey,,18540,1840081652
Aberdeen,Aberdeen,US,USA,United States,39.5146,-76.1730,Maryland,,16019,1840005666
Aberdeen,Aberdeen,US,USA,United States,35.1350,-79.4326,North Carolina,,7988,1840015433
Aberdeen,Aberdeen,US,USA,United States,33.8287,-88.5539,Mississippi,,5205,1840013685
Abergavenny,Abergavenny,GB,GBR,United Kingdom,51.8240,-3.0167,Monmouthshire,,12515,1826362404
Abersychan,Abersychan,GB,GBR,United Kingdom,51.7239,-3.0587,Torfaen,,7064,1826701602
Abertawe,Abertawe,GB,GBR,United Kingdom,51.6167,-3.9500,Swansea,,245508,1826574888
Abertillery,Abertillery,GB,GBR,United Kingdom,51.7300,-3.1300,Blaenau Gwent,,11601,1826675845
Aberystwyth,Aberystwyth,GB,GBR,United Kingdom,52.4140,-4.0810,Ceredigion,,12250,1826420477
Abha,Abhā,SA,SAU,Saudi Arabia,18.2167,42.5000,‘Asīr,admin,236157,1682759151
Abhar,Abhar,IR,IRN,Iran,36.1467,49.2181,Zanjān,minor,99285,1364688687
Abidjan,Abidjan,CI,CIV,Côte d'Ivoire,5.3364,-4.0267,Abidjan,primary,4980000,1384207980
Abiko,Abiko,JP,JPN,Japan,35.8642,140.0282,Chiba,,130290,1392000342
Abilene,Abilene,US,USA,United States,32.4543,-99.7384,Texas,,123420,1840019476
Abilene,Abilene,US,USA,United States,38.9229,-97.2251,Kansas,,6390,1840001629
Abim,Abim,UG,UGA,Uganda,2.7017,33.6761,Abim,admin,,1800199589
Abingdon,Abingdon,GB,GBR,United Kingdom,51.6670,-1.2830,Oxfordshire,,33130,1826918722
Abingdon,Abingdon,US,USA,United States,36.7089,-81.9713,Virginia,,7867,1840006529
Abington,Abington,US,USA,United States,40.1108,-75.1146,Pennsylvania,,55459,1840035369
Abington,Abington,US,USA,United States,42.1180,-70.9590,Massachusetts,,16436,1840053564
Abinsk,Abinsk,RU,RUS,Russia,44.8667,38.1667,Krasnodarskiy Kray,minor,38547,1643216828
Abira,Abira,JP,JPN,Japan,42.7628,141.8181,Hokkaidō,,7569,1392460076
Abjij,Abjīj,EG,EGY,Egypt,29.2861,30.8152,Al Fayyūm,,10057,1818397315
Ablon-sur-Seine,Ablon-sur-Seine,FR,FRA,France,48.7256,2.4211,Île-de-France,,5818,1250465461
Abnub,Abnūb,EG,EGY,Egypt,27.2667,31.1500,Asyūţ,,67526,1818739665
Abohar,Abohar,IN,IND,India,30.1204,74.2900,Punjab,,130603,1356846795
Aboisso,Aboisso,CI,CIV,Côte d'Ivoire,5.4667,-3.2000,Comoé,minor,37654,1384385857
Abomey,Abomey,BJ,BEN,Benin,7.1853,1.9914,Zou,admin,82154,1204597697
Abong Mbang,Abong Mbang,CM,CMR,Cameroon,3.9833,13.1667,Est,,14661,1120726386
Abony,Abony,HU,HUN,Hungary,47.1892,20.0053,Pest,,14392,1348748527
Aborlan,Aborlan,PH,PHL,Philippines,9.4386,118.5481,Palawan,,38736,1608193671
Abovyan,Abovyan,AM,ARM,Armenia,40.2739,44.6256,Kotayk’,,44400,1051509043
Abra de Ilog,Abra de Ilog,PH,PHL,Philippines,13.4448,120.7260,Occidental Mindoro,,35176,1608871272
Abra Pampa,Abra Pampa,AR,ARG,Argentina,-22.7167,-65.7000,Jujuy,minor,4480,1032997640
Abrandabad-e Shahediyeh,Abrandābād-e Shāhedīyeh,IR,IRN,Iran,31.9414,54.2828,Yazd,,18309,1364301778
Abrantes,Abrantes,PT,PRT,Portugal,39.4644,-8.1978,Santarém,minor,39325,1620417746
Abre Campo,Abre Campo,BR,BRA,Brazil,-20.3008,-42.4778,Minas Gerais,,13444,1076902568
Abrera,Abrera,ES,ESP,Spain,41.5165,1.9024,Catalonia,,12620,1724786014
Abreus,Abreus,CU,CUB,Cuba,22.2806,-80.5678,Cienfuegos,,23144,1192567991
Abrisham,Abrīsham,IR,IRN,Iran,32.5550,51.5731,Eşfahān,,19406,1364088280
Abrud,Abrud,RO,ROU,Romania,46.2739,23.0500,Alba,,5072,1642576907
Absam,Absam,AT,AUT,Austria,47.2965,11.5149,Tirol,,7112,1040206827
Absecon,Absecon,US,USA,United States,39.4228,-74.4944,New Jersey,,8818,1840003797
Abtenau,Abtenau,AT,AUT,Austria,47.5333,13.3500,Salzburg,,5842,1040346739
Abtsgmund,Abtsgmünd,DE,DEU,Germany,48.8942,10.0039,Baden-Württemberg,,7417,1276378434
Abu,Abu,IN,IND,India,24.5925,72.7083,Rājasthān,,22943,1356598126
Abu Dhabi,Abu Dhabi,AE,ARE,United Arab Emirates,24.4511,54.3969,Abū Z̧aby,primary,1483000,1784176710
Abu Hamad,Abū Ḩamad,SD,SDN,Sudan,19.5370,33.3260,River Nile,,50000,1729554381
Abu Hulayfah,Abū Ḩulayfah,KW,KWT,Kuwait,29.3333,48.0000,Al Aḩmadī,,164212,1414456826
Abu Qir,Abū Qīr,EG,EGY,Egypt,31.3167,30.0667,Al Iskandarīyah,,37997,1818093442
Abu Qurqas,Abū Qurqāş,EG,EGY,Egypt,27.9308,30.8364,Al Minyā,,63264,1818889126
Abucay,Abucay,PH,PHL,Philippines,14.7222,120.5354,Bataan,,42984,1608999598
Abuja,Abuja,NG,NGA,Nigeria,9.0556,7.4914,Federal Capital Territory,primary,1235880,1566342270
Abulug,Abulug,PH,PHL,Philippines,18.4441,121.4576,Cagayan,,34579,1608894919
Abuna,Abunã,BR,BRA,Brazil,-9.6954,-65.3597,Rondônia,,1929,1076632448
Abuyog,Abuyog,PH,PHL,Philippines,10.7458,125.0122,Leyte,,61216,1608485452
Abuzeydabad,Abūzeydābād,IR,IRN,Iran,33.9042,51.7686,Eşfahān,,5160,1364675175
Ac-cahrij,Aç-çahrij,MA,MAR,Morocco,31.7914,-7.1475,Marrakech-Safi,,15385,1504655221
Acacias,Acacías,CO,COL,Colombia,3.9889,-73.7647,Meta,minor,75252,1170420071
Acacoyagua,Acacoyagua,MX,MEX,Mexico,15.3408,-92.6747,Chiapas,minor,8092,1484526569
Acailandia,Açailandia,BR,BRA,Brazil,-4.9469,-47.5050,Tocantins,,104047,1076993685
Acajutiba,Acajutiba,BR,BRA,Brazil,-11.6619,-38.0169,Bahia,,15717,1076094256
Acajutla,Acajutla,SV,SLV,El Salvador,13.5928,-89.8275,Sonsonate,,92000,1222402975
Acala,Acala,MX,MEX,Mexico,16.5533,-92.8069,Chiapas,minor,15001,1484788928
Acala del Rio,Acalá del Río,ES,ESP,Spain,37.5167,-5.9667,Andalusia,,12264,1724367182
Acambaro,Acámbaro,MX,MEX,Mexico,20.0361,-100.7314,Guanajuato,minor,57972,1484524073
Acanceh,Acanceh,MX,MEX,Mexico,20.8133,-89.4524,Yucatán,minor,10968,1484170180
Acapulco de Juarez,Acapulco de Juárez,MX,MEX,Mexico,16.8636,-99.8825,Guerrero,minor,673478,1484463183
Acara,Acará,BR,BRA,Brazil,-1.9608,-48.1969,Pará,,54080,1076141011
Acarape,Acarape,BR,BRA,Brazil,-4.2242,-38.7083,Ceará,,16288,1076431033
Acarau,Acaraú,BR,BRA,Brazil,-2.8858,-40.1200,Ceará,,61210,1076016462
Acari,Acari,BR,BRA,Brazil,-6.4358,-36.6389,Rio Grande do Norte,,11035,1076782658
Acarigua,Acarigua,VE,VEN,Venezuela,9.5597,-69.2019,Portuguesa,minor,195637,1862134462
Acate,Acate,IT,ITA,Italy,37.0253,14.4925,Sicilia,,11325,1380824734
Acatic,Acatic,MX,MEX,Mexico,20.7803,-102.9100,Jalisco,minor,21530,1484373854
Acatlan,Acatlán,MX,MEX,Mexico,20.4242,-103.6014,Jalisco,minor,22261,1484516807
Acatlan de Osorio,Acatlán de Osorio,MX,MEX,Mexico,18.2086,-98.0575,Puebla,,18879,1484340141
Acatlan de Perez Figueroa,Acatlán de Pérez Figueroa,MX,MEX,Mexico,18.5333,-96.6167,Oaxaca,,45883,1484695178
Acatzingo,Acatzingo,MX,MEX,Mexico,18.9817,-97.7822,Puebla,minor,52078,1484022961
Acayucan,Acayucan,MX,MEX,Mexico,17.9422,-94.9103,Veracruz,minor,83817,1484349924
Accokeek,Accokeek,US,USA,United States,38.6745,-77.0023,Maryland,,11647,1840005943
Accra,Accra,GH,GHA,Ghana,5.6037,-0.1870,Greater Accra,primary,2291352,1288299415
Accrington,Accrington,GB,GBR,United Kingdom,53.7534,-2.3638,Lancashire,,35456,1826709919
Acerra,Acerra,IT,ITA,Italy,40.9500,14.3667,Campania,,59910,1380520117
Aceuchal,Aceuchal,ES,ESP,Spain,38.6500,-6.4831,Extremadura,,5467,1724595854
Acevedo,Acevedo,CO,COL,Colombia,1.8047,-75.8897,Huila,minor,39877,1170946838
Achacachi,Achacachi,BO,BOL,Bolivia,-16.0444,-68.6850,La Paz,,8857,1068370700
Achampet,Achampet,IN,IND,India,16.6299,80.1213,Andhra Pradesh,,20721,1356144571
Acheres,Achères,FR,FRA,France,48.9602,2.0684,Île-de-France,,21098,1250623309
Achern,Achern,DE,DEU,Germany,48.6314,8.0739,Baden-Württemberg,,25615,1276045216
Achi,Achí,CO,COL,Colombia,8.5692,-74.5561,Bolívar,minor,23051,1170684229
Achicourt,Achicourt,FR,FRA,France,50.2733,2.7594,Hauts-de-France,,7878,1250805293
Achikulak,Achikulak,RU,RUS,Russia,44.5467,44.8314,Stavropol’skiy Kray,,5936,1643569630
Achim,Achim,DE,DEU,Germany,53.0130,9.0330,Lower Saxony,,31911,1276242263
Achinsk,Achinsk,RU,RUS,Russia,56.2817,90.5039,Krasnoyarskiy Kray,,105264,1643890929
Achkhoy-Martan,Achkhoy-Martan,RU,RUS,Russia,43.1939,45.2833,Chechnya,minor,23282,1643219840
Aci Castello,Aci Castello,IT,ITA,Italy,37.5500,15.1500,Sicilia,,18577,1380669232
Aci Catena,Aci Catena,IT,ITA,Italy,37.6000,15.1500,Sicilia,,29418,1380362156
Aci Sant'Antonio,Aci Sant’Antonio,IT,ITA,Italy,37.6059,15.1260,Sicilia,,18076,1380974532
Acigne,Acigné,FR,FRA,France,48.1342,-1.5367,Bretagne,,6814,1250688703
Acigol,Acıgöl,TR,TUR,Turkey,38.5503,34.5092,Nevşehir,minor,5748,1792587521
Acireale,Acireale,IT,ITA,Italy,37.6125,15.1656,Sicilia,,52269,1380128872
Aconibe,Aconibe,GQ,GNQ,Equatorial Guinea,1.3000,10.9333,Wele-Nzas,,13382,1226173790
Acopiara,Acopiara,BR,BRA,Brazil,-6.0950,-39.4528,Ceará,,53135,1076661571
Acorizal,Acorizal,BR,BRA,Brazil,-15.2050,-56.3658,Mato Grosso,,5269,1076943936
Acquapendente,Acquapendente,IT,ITA,Italy,42.7447,11.8650,Lazio,,5439,1380580784
Acquaviva,Acquaviva,SM,SMR,San Marino,43.9453,12.4183,Acquaviva,admin,,1674696011
Acquaviva delle Fonti,Acquaviva delle Fonti,IT,ITA,Italy,40.9000,16.8500,Puglia,,20600,1380485261
Acque Dolci,Acque Dolci,IT,ITA,Italy,38.0500,14.5833,Sicilia,,5663,1380624815
Acqui Terme,Acqui Terme,IT,ITA,Italy,44.6761,8.4686,Piedmont,,19651,1380674535
Acri,Acri,IT,ITA,Italy,39.5000,16.3833,Calabria,,20442,1380975284
Acs,Ács,HU,HUN,Hungary,47.7100,18.0156,Komárom-Esztergom,,6771,1348054634
Acton,Acton,US,USA,United States,42.4843,-71.4378,Massachusetts,,23627,1840053471
Acton,Acton,US,USA,United States,34.4956,-118.1857,California,,7232,1840017917
Acton Vale,Acton Vale,CA,CAN,Canada,45.6500,-72.5667,Quebec,,7664,1124864792
Actopan,Actopan,MX,MEX,Mexico,19.5036,-96.6192,Veracruz,minor,43388,1484594634
Actopan,Actopan,MX,MEX,Mexico,20.2670,-98.9330,Hidalgo,,29223,1484903562
Acu,Açu,BR,BRA,Brazil,-5.5769,-36.9089,Rio Grande do Norte,,53227,1076000524
Acua,Açuã,BR,BRA,Brazil,-8.2150,-41.0819,Piauí,,6749,1076675557
Acucena,Açucena,BR,BRA,Brazil,-19.0728,-42.5458,Minas Gerais,,9368,1076910841
Acula,Acula,MX,MEX,Mexico,18.5167,-95.7833,Veracruz,minor,5350,1484501031
Acushnet,Acushnet,US,USA,United States,41.7139,-70.9012,Massachusetts,,10529,1840131572
Acworth,Acworth,US,USA,United States,34.0566,-84.6715,Georgia,,22818,1840013688
Ad Dab`ah,Aḑ Ḑab‘ah,EG,EGY,Egypt,31.0338,28.4333,Maţrūḩ,,14212,1818525598
Ad Dakhla,Ad Dakhla,MA,MAR,Morocco,23.7141,-15.9368,,,89292,1504999983
Ad Dali`,Aḑ Ḑāli‘,YE,YEM,Yemen,13.6957,44.7314,Aḑ Ḑāli‘,admin,,1887607369
Ad Dammam,Ad Dammām,SA,SAU,Saudi Arabia,26.4333,50.1000,Ash Sharqīyah,admin,903312,1682452296
Ad Darwa,Ad Darwa,MA,MAR,Morocco,33.4167,-7.5333,Casablanca-Settat,,47719,1504000451
Ad Dir`iyah,Ad Dir‘īyah,SA,SAU,Saudi Arabia,24.7333,46.5756,Ar Riyāḑ,,19143,1682421969
Ad Dis,Ad Dīs,YE,YEM,Yemen,14.9100,49.9920,Ḩaḑramawt,,16614,1887279052
Ad Diwaniyah,Ad Dīwānīyah,IQ,IRQ,Iraq,31.9892,44.9247,Al Qādisīyah,admin,391600,1368864006
Ad Diwem,Ad Diwem,SD,SDN,Sudan,13.9904,32.3000,White Nile,,87068,1729364292
Ad Duraykish,Ad Duraykīsh,SY,SYR,Syria,34.8969,36.1346,Ţarţūs,minor,13244,1760515031
Ada,Ada,RS,SRB,Serbia,45.8014,20.1222,Ada,admin,10547,1688687750
Ada,Ada,US,USA,United States,34.7683,-96.6689,Oklahoma,,17840,1840019191
Ada,Ada,US,USA,United States,40.7681,-83.8253,Ohio,,5544,1840010371
Adachi,Adachi,JP,JPN,Japan,35.7833,139.8000,Tōkyō,,682326,1392464568
Adamantina,Adamantina,BR,BRA,Brazil,-21.6847,-51.0733,São Paulo,,35048,1076252044
Adams,Adams,US,USA,United States,40.7092,-80.0120,Pennsylvania,,13643,1840149061
Adams,Adams,US,USA,United States,42.6269,-73.1187,Massachusetts,,8125,1840053644
Adams,Adams,US,USA,United States,40.2876,-78.7452,Pennsylvania,,5640,1840145840
Adams,Adams,US,USA,United States,43.8511,-76.0379,New York,,5068,1840004119
Adamstown,Adamstown,PN,PCN,Pitcairn Islands,-25.0667,-130.0833,,primary,,1612000000
Adana,Adana,TR,TUR,Turkey,37.0000,35.3250,Adana,admin,289919,1792783772
Adassil,Adassil,MA,MAR,Morocco,31.1078,-8.4908,Marrakech-Safi,,7454,1504025775
Adazi,Ādaži,LV,LVA,Latvia,57.0769,24.3236,Ādažu Novads,admin,7154,1428843734
Addanki,Addanki,IN,IND,India,15.8110,79.9738,Andhra Pradesh,,43850,1356837121
Addatigala,Addatīgala,IN,IND,India,17.4833,82.0167,Andhra Pradesh,,6002,1356378023
Addis,Addis,US,USA,United States,30.3652,-91.2659,Louisiana,,6221,1840015915
Addis Ababa,Addis Ababa,ET,ETH,Ethiopia,9.0272,38.7369,Ādīs Ābeba,primary,3041002,1231824991
Addison,Addison,US,USA,United States,41.9314,-88.0085,Illinois,,36482,1840010171
Addison,Addison,US,USA,United States,32.9590,-96.8355,Texas,,16263,1840022057
Adeje,Adeje,ES,ESP,Spain,28.1167,-16.7167,Canary Islands,,48733,1724394126
Adel,Adel,US,USA,United States,31.1272,-83.4232,Georgia,,6989,1840013879
Adel,Adel,US,USA,United States,41.6121,-94.0129,Iowa,,5455,1840007053
Adelaide,Adelaide,AU,AUS,Australia,-34.9275,138.6000,South Australia,admin,1295714,1036538171
Adelaide River,Adelaide River,AU,AUS,Australia,-13.2381,131.1061,Northern Territory,,353,1036136750
Adelanto,Adelanto,US,USA,United States,34.5815,-117.4397,California,,34049,1840019117
Adelebsen,Adelebsen,DE,DEU,Germany,51.5800,9.7544,Lower Saxony,,6294,1276857763
Adelfia,Adelfia,IT,ITA,Italy,41.0000,16.8667,Puglia,,16963,1380602837
Adelphi,Adelphi,US,USA,United States,39.0017,-76.9649,Maryland,,16377,1840005944
Adelsdorf,Adelsdorf,DE,DEU,Germany,49.7112,10.8935,Bavaria,,8366,1276049542
Aden,Aden,YE,YEM,Yemen,12.8000,45.0333,‘Adan,admin,507355,1887867886
Adendorf,Adendorf,DE,DEU,Germany,53.2833,10.4500,Lower Saxony,,10754,1276724557
Adet,Ādēt,ET,ETH,Ethiopia,11.2667,37.4833,Āmara,,21117,1231929103
Adi Keyh,Adi Keyh,ER,ERI,Eritrea,14.8333,39.3667,Ma’ākel,,13061,1232384326
Adigoppula,Adigoppula,IN,IND,India,16.4402,79.6235,Andhra Pradesh,,8816,1356850226
Adigrat,Ādīgrat,ET,ETH,Ethiopia,14.2804,39.4700,Tigray,,104021,1231492773
Adilabad,Adilābād,IN,IND,India,19.6667,78.5333,Telangana,,117167,1356085840
Adilcevaz,Adilcevaz,TR,TUR,Turkey,38.8058,42.7469,Bitlis,minor,6148,1792411490
Adis,Adis,MA,MAR,Morocco,29.6919,-7.9856,Souss-Massa,,6511,1504618644
Adiyaman,Adıyaman,TR,TUR,Turkey,37.7644,38.2763,Adıyaman,admin,22153,1792686663
Adjala-Tosorontio,Adjala-Tosorontio,CA,CAN,Canada,44.1333,-79.9333,Ontario,,10975,1124000498
Adjud,Adjud,RO,ROU,Romania,46.1000,27.1797,Vrancea,,16045,1642892790
Adjumani,Adjumani,UG,UGA,Uganda,3.3614,31.8097,Adjumani,admin,34700,1800855823
Adligenswil,Adligenswil,CH,CHE,Switzerland,47.0706,8.3650,Luzern,,5391,1756789843
Adliswil,Adliswil,CH,CHE,Switzerland,47.3122,8.5256,Zürich,,18731,1756221733
Admont,Admont,AT,AUT,Austria,47.5731,14.4611,Steiermark,,5010,1040036946
Ado-Ekiti,Ado-Ekiti,NG,NGA,Nigeria,7.6167,5.2167,Ekiti,admin,446749,1566196391
Adra,Adra,ES,ESP,Spain,36.7478,-3.0161,Andalusia,,25501,1724071055
Adrano,Adrano,IT,ITA,Italy,37.6625,14.8356,Sicilia,,35633,1380203916
Adrar,Adrar,DZ,DZA,Algeria,27.8742,-0.2939,Adrar,admin,68276,1012462113
Adria,Adria,IT,ITA,Italy,45.0500,12.0500,Veneto,,19436,1380910667
Adrian,Adrian,US,USA,United States,41.8994,-84.0446,Michigan,,43689,1840003226
Adrianopolis,Adrianópolis,BR,BRA,Brazil,-24.6569,-48.9908,Paraná,,5857,1076249756
Adro,Adro,IT,ITA,Italy,45.6179,9.9625,Lombardy,,7168,1380142410
Adrogue,Adrogue,AR,ARG,Argentina,-34.8000,-58.3833,Buenos Aires,,28265,1032827397
Adustina,Adustina,BR,BRA,Brazil,-10.5328,-38.1000,Bahia,,17153,1076245187
Adwick le Street,Adwick le Street,GB,GBR,United Kingdom,53.5677,-1.1931,Doncaster,,15911,1826413996
Adwitnagar,Adwitnagar,IN,IND,India,24.6296,87.8986,West Bengal,,6176,1356745721
Adygeysk,Adygeysk,RU,RUS,Russia,44.8800,39.1900,Adygeya,minor,12745,1643365200
Aerzen,Aerzen,DE,DEU,Germany,52.0496,9.2638,Lower Saxony,,10510,1276826554
Aesch,Aesch,CH,CHE,Switzerland,47.4694,7.5942,Basel-Landschaft,,10352,1756884116
Afega,Afega,WS,WSM,Samoa,-13.7973,-171.8531,Tuamasaga,admin,,1882284139
Affing,Affing,DE,DEU,Germany,48.4581,10.9814,Bavaria,,5476,1276394675
Affoltern am Albis,Affoltern am Albis,CH,CHE,Switzerland,47.2817,8.4502,Zürich,,12080,1756025824
Affton,Affton,US,USA,United States,38.5499,-90.3264,Missouri,,20148,1840006124
Afir,Afir,DZ,DZA,Algeria,36.7676,3.7029,Boumerdes,,13223,1012675026
Aflao,Aflao,GH,GHA,Ghana,6.1188,1.1946,Volta,,66546,1288563374
Afogados da Ingazeira,Afogados da Ingazeira,BR,BRA,Brazil,-7.7508,-37.6342,Pernambuco,,35088,1076271045
Afonso Bezerra,Afonso Bezerra,BR,BRA,Brazil,-5.4978,-36.5058,Rio Grande do Norte,,10844,1076653188
Afonso Claudio,Afonso Cláudio,BR,BRA,Brazil,-20.0739,-41.1239,Espírito Santo,,30455,1076232395
Afonso Cunha,Afonso Cunha,BR,BRA,Brazil,-4.1328,-43.3239,Maranhão,,5905,1076853400
Afourar,Afourar,MA,MAR,Morocco,32.2083,-6.5403,Béni Mellal-Khénifra,,21382,1504710376
Afragola,Afragola,IT,ITA,Italy,40.9167,14.3167,Campania,,64817,1380524178
Afranio,Afrânio,BR,BRA,Brazil,-8.5000,-41.0000,Pernambuco,,17586,1076000646
Afsin,Afşin,TR,TUR,Turkey,38.2500,36.9167,Kahramanmaraş,minor,8069,1792739931
Afua,Afuá,BR,BRA,Brazil,-0.1569,-50.3869,Pará,,37778,1076124321
Afula,Afula,IL,ISR,Israel,32.6078,35.2897,Northern,,44930,1376077681
Afumati,Afumaţi,RO,ROU,Romania,44.5255,26.2496,Ilfov,,7919,1642945778
Afyonkarahisar,Afyonkarahisar,TR,TUR,Turkey,38.7581,30.5386,Afyonkarahisar,admin,44026,1792855788
Agadez,Agadez,NE,NER,Niger,16.9959,7.9828,Agadez,admin,117770,1562789067
Agadir,Agadir,MA,MAR,Morocco,30.4167,-9.5833,Souss-Massa,admin,421844,1504116858
Agadir Melloul,Agadir Melloul,MA,MAR,Morocco,30.2249,-7.7960,Souss-Massa,,8848,1504880181
Agaete,Agaete,ES,ESP,Spain,28.1017,-15.7007,Canary Islands,,5695,1724582107
Agago,Agago,UG,UGA,Uganda,2.8338,33.3336,Agago,admin,,1800321499
Agali,Agali,IN,IND,India,13.7842,77.0544,Andhra Pradesh,,7616,1356482430
Agan,Agan,CN,CHN,China,35.9167,103.8471,Gansu,,20985,1156933148
Agano,Agano,JP,JPN,Japan,37.8344,139.2260,Niigata,,40382,1392003064
Agapa,Agapa,RU,RUS,Russia,71.4504,89.2500,Krasnoyarskiy Kray,,10,1643009087
Agapovka,Agapovka,RU,RUS,Russia,53.2942,59.1344,Chelyabinskaya Oblast’,,6561,1643003522
Agareb,Agareb,TN,TUN,Tunisia,34.7414,10.5280,Sfax,,9610,1788531195
Agartala,Agartala,IN,IND,India,23.8333,91.2667,Tripura,admin,522613,1356148992
Agawam,Agawam,US,USA,United States,42.0657,-72.6526,Massachusetts,,28613,1840031157
Agboville,Agboville,CI,CIV,Côte d'Ivoire,5.9333,-4.2167,Lagunes,minor,81770,1384823872
Agcabadi,Ağcabədi,AZ,AZE,Azerbaijan,40.0489,47.4502,Ağcabədi,admin,39200,1031860893
Agcogon,Agcogon,PH,PHL,Philippines,12.0667,121.9333,Romblon,,11759,1608922039
Agdam,Ağdam,AZ,AZE,Azerbaijan,39.9833,46.9167,Ağdam,admin,3770,1031176858
Agdam,Ağdam,AZ,AZE,Azerbaijan,40.9053,45.5564,Tovuz,,0,1031834023
Agdangan,Agdangan,PH,PHL,Philippines,13.8758,121.9122,Quezon,minor,12764,1608783470
Agdas,Ağdaş,AZ,AZE,Azerbaijan,40.6500,47.4833,Ağdaş,admin,29600,1031916654
Agde,Agde,FR,FRA,France,43.3108,3.4758,Occitanie,,29090,1250539086
Agdz,Agdz,MA,MAR,Morocco,30.6984,-6.4729,Drâa-Tafilalet,,10681,1504481123
Agen,Agen,FR,FRA,France,44.2049,0.6212,Nouvelle-Aquitaine,minor,33012,1250059626
Ageoshimo,Ageoshimo,JP,JPN,Japan,35.9775,139.5933,Saitama,,226616,1392046664
Agerola,Agerola,IT,ITA,Italy,40.6333,14.5500,Campania,,7695,1380930118
Aghbal,Aghbal,MA,MAR,Morocco,34.9394,-2.1272,Oriental,,14908,1504000927
Aghbala,Aghbala,MA,MAR,Morocco,32.4806,-5.6450,Béni Mellal-Khénifra,,12781,1504000722
Aghbalou Aqourar,Aghbalou Aqourar,MA,MAR,Morocco,33.9342,-4.7381,Fès-Meknès,,9715,1504995287
Aghbalou n'Kerdous,Aghbalou n’Kerdous,MA,MAR,Morocco,31.7611,-5.3169,Drâa-Tafilalet,,10313,1504201813
Aghbar,Aghbar,MA,MAR,Morocco,30.5167,-6.8167,Drâa-Tafilalet,,5182,1504661685
Agia Paraskevi,Agía Paraskeví,GR,GRC,Greece,38.0053,23.8208,Attikí,minor,59704,1300253630
Agidel,Agidel,RU,RUS,Russia,55.9000,53.9333,Bashkortostan,,14601,1643864231
Aginskoye,Aginskoye,RU,RUS,Russia,51.1031,114.5228,Zabaykal’skiy Kray,,11491,1643514234
Aginskoye,Aginskoye,RU,RUS,Russia,55.2606,94.9144,Krasnoyarskiy Kray,,5584,1643901025
Agios Athanasios,Ágios Athanásios,CY,CYP,Cyprus,34.7087,33.0504,Lemesós,,14578,1196729508
Agira,Agira,IT,ITA,Italy,37.6500,14.5167,Sicilia,,8222,1380026762
Agliana,Agliana,IT,ITA,Italy,43.9000,11.0000,Tuscany,,17789,1380301784
Aglipay,Aglipay,PH,PHL,Philippines,16.4889,121.5874,Quirino,,30714,1608815754
Agnita,Agnita,RO,ROU,Romania,45.9733,24.6172,Sibiu,,8732,1642697925
Agno,Agno,PH,PHL,Philippines,16.1161,119.8027,Pangasinan,,29947,1608574609
Agnone,Agnone,IT,ITA,Italy,41.8104,14.3785,Molise,,5008,1380842283
Agoncillo,Agoncillo,PH,PHL,Philippines,13.9334,120.9285,Batangas,,39101,1608191192
Agoo,Agoo,PH,PHL,Philippines,16.3220,120.3647,La Union,,66028,1608343645
Agoura Hills,Agoura Hills,US,USA,United States,34.1510,-118.7608,California,,20222,1840019221
Agourai,Agourai,MA,MAR,Morocco,33.6333,-5.5833,Fès-Meknès,,16651,1504734608
Agra,Āgra,IN,IND,India,27.1724,78.0131,Uttar Pradesh,,1592000,1356187395
Agramunt,Agramunt,ES,ESP,Spain,41.7863,1.0964,Catalonia,,5464,1724899562
Agrate Brianza,Agrate Brianza,IT,ITA,Italy,45.5783,9.3522,Lombardy,,15540,1380660199
Agrestina,Agrestina,BR,BRA,Brazil,-8.4500,-35.9500,Pernambuco,,22679,1076512287
Agri,Ağrı,TR,TUR,Turkey,39.7225,43.0544,Ağrı,admin,24168,1792385654
Agria,Agriá,GR,GRC,Greece,39.3400,23.0133,Thessalía,,5191,1300594984
Agricolandia,Agricolândia,BR,BRA,Brazil,-5.7989,-42.6689,Piauí,,5098,1076571423
Agrigento,Agrigento,IT,ITA,Italy,37.3111,13.5765,Sicilia,minor,59329,1380721319
Agrinio,Agrínio,GR,GRC,Greece,38.6167,21.4000,Dytikí Elláda,minor,46899,1300351677
Agropoli,Agropoli,IT,ITA,Italy,40.3583,14.9833,Campania,,21874,1380689774
Agryz,Agryz,RU,RUS,Russia,56.5167,52.9833,Tatarstan,,19704,1643220768
Agstafa,Ağstafa,AZ,AZE,Azerbaijan,41.1167,45.4500,Ağstafa,admin,20200,1031889683
Agsu,Ağsu,AZ,AZE,Azerbaijan,40.5708,48.3928,Ağsu,admin,20200,1031748204
Agua Azul do Norte,Água Azul do Norte,BR,BRA,Brazil,-6.7908,-50.4669,Pará,,26497,1076912396
Agua Blanca,Agua Blanca,GT,GTM,Guatemala,14.4833,-89.6494,Jutiapa,minor,13571,1320861023
Agua Blanca Iturbide,Agua Blanca Iturbide,MX,MEX,Mexico,20.3500,-98.3500,Hidalgo,,10313,1484459690
Agua Boa,Água Boa,BR,BRA,Brazil,-17.9958,-42.3889,Minas Gerais,,14524,1076580092
Agua Branca,Água Branca,BR,BRA,Brazil,-9.2608,-37.9361,Alagoas,,20230,1076362239
Agua Branca,Água Branca,BR,BRA,Brazil,-5.8900,-42.6378,Piauí,,16451,1076724006
Agua Branca,Água Branca,BR,BRA,Brazil,-7.5119,-37.6408,Paraíba,,10083,1076930079
Agua Caliente,Agua Caliente,SV,SLV,El Salvador,14.1667,-89.2167,Chalatenango,,8261,1222781714
Agua Clara,Água Clara,BR,BRA,Brazil,-20.4500,-52.8667,Mato Grosso do Sul,,14734,1076035194
Agua de Dios,Agua de Dios,CO,COL,Colombia,4.3781,-74.6683,Cundinamarca,minor,10995,1170261758
Agua Doce,Água Doce,BR,BRA,Brazil,-26.9978,-51.5558,Santa Catarina,,6961,1076513131
Agua Fria,Água Fria,BR,BRA,Brazil,-11.8669,-38.7669,Bahia,,17043,1076969631
Agua Preta,Água Preta,BR,BRA,Brazil,-8.7000,-35.3500,Pernambuco,,33095,1076495726
Agua Prieta,Agua Prieta,MX,MEX,Mexico,31.3258,-109.5489,Sonora,minor,91029,1484381848
Aguachica,Aguachica,CO,COL,Colombia,8.3067,-73.6153,Cesar,minor,109621,1170152591
Aguadas,Aguadas,CO,COL,Colombia,5.6092,-75.4564,Caldas,minor,21237,1170536116
Aguadilla,Aguadilla,PR,PRI,Puerto Rico,18.4382,-67.1536,Puerto Rico,,10739,1630035605
Aguai,Aguaí,BR,BRA,Brazil,-22.0603,-46.9736,São Paulo,,34863,1076299565
Agualva,Agualva,PT,PRT,Portugal,38.7700,-9.2988,Lisboa,,35824,1620936507
Aguas Belas,Águas Belas,BR,BRA,Brazil,-9.1167,-37.1167,Pernambuco,,40235,1076330876
Aguas da Prata,Águas da Prata,BR,BRA,Brazil,-21.9369,-46.7169,São Paulo,,8025,1076783240
Aguas de Chapeco,Águas de Chapecó,BR,BRA,Brazil,-27.0700,-52.9869,Santa Catarina,,6110,1076735447
Aguas de Lindoia,Águas de Lindóia,BR,BRA,Brazil,-22.4758,-46.6328,São Paulo,,18313,1076621560
Aguas Formosas,Águas Formosas,BR,BRA,Brazil,-17.0819,-40.9358,Minas Gerais,,19247,1076043870
Aguas Mornas,Águas Mornas,BR,BRA,Brazil,-27.6939,-48.8239,Santa Catarina,,5548,1076001351
Aguas Vermelhas,Águas Vermelhas,BR,BRA,Brazil,-15.7469,-41.4600,Minas Gerais,,13513,1076605464
Aguascalientes,Aguascalientes,MX,MEX,Mexico,21.8760,-102.2960,Aguascalientes,admin,934424,1484666646
Aguazul,Aguazul,CO,COL,Colombia,5.1689,-72.5467,Casanare,minor,43183,1170359050
Agudo,Agudo,BR,BRA,Brazil,-29.6450,-53.2400,Rio Grande do Sul,,16401,1076713609
Agudos,Agudos,BR,BRA,Brazil,-22.4739,-48.9836,São Paulo,,36524,1076000779
Agudos do Sul,Agudos do Sul,BR,BRA,Brazil,-25.9928,-49.3350,Paraná,,8270,1076267652
Agueda,Águeda,PT,PRT,Portugal,40.5805,-8.4417,Aveiro,minor,47729,1620290042
Aguelhok,Aguelhok,ML,MLI,Mali,19.4614,0.8589,Kidal,,8080,1466967655
Aguelmous,Aguelmous,MA,MAR,Morocco,33.1500,-5.8333,Béni Mellal-Khénifra,,35626,1504241696
Agui,Agui,JP,JPN,Japan,34.9325,136.9156,Aichi,,28176,1392003310
Aguia Branca,Águia Branca,BR,BRA,Brazil,-18.9828,-40.7400,Espírito Santo,,9519,1076311208
Aguiar,Aguiar,BR,BRA,Brazil,-7.0919,-38.1708,Paraíba,,5573,1076193752
Aguiar da Beira,Aguiar da Beira,PT,PRT,Portugal,40.8180,-7.5414,Guarda,minor,5473,1620715941
Aguiarnopolis,Aguiarnópolis,BR,BRA,Brazil,-6.5628,-47.4658,Tocantins,,5162,1076001865
Aguilar,Aguilar,ES,ESP,Spain,37.5167,-4.6500,Andalusia,,13398,1724391215
Aguilar,Aguilar,PH,PHL,Philippines,15.8899,120.2379,Pangasinan,,45100,1608688044
Aguilar de Campoo,Aguilar de Campóo,ES,ESP,Spain,42.8000,-4.2667,Castille-Leon,,6711,1724287714
Aguilas,Águilas,ES,ESP,Spain,37.4042,-1.5819,Murcia,,35956,1724197717
Aguinaldo,Aguinaldo,PH,PHL,Philippines,16.8206,121.4629,Santiago,,21128,1608419129
Agustin Codazzi,Agustín Codazzi,CO,COL,Colombia,10.0367,-73.2369,Cesar,minor,49233,1170077466
Agutaya,Agutaya,PH,PHL,Philippines,11.1520,120.9396,Palawan,,12867,1608681129
Ahar,Ahar,IR,IRN,Iran,38.4750,47.0603,Āz̄arbāyjān-e Sharqī,minor,100641,1364602437
Ahaus,Ahaus,DE,DEU,Germany,52.0794,7.0134,North Rhine-Westphalia,,39381,1276411347
Aheqi,Aheqi,CN,CHN,China,40.9372,78.4543,Xinjiang,minor,11910,1156243084
Ahfir,Ahfir,MA,MAR,Morocco,34.9514,-2.1025,Oriental,,19630,1504027251
Ahlaf,Ahlaf,MA,MAR,Morocco,33.2833,-7.2000,Casablanca-Settat,,11451,1504239196
Ahlat,Ahlat,TR,TUR,Turkey,38.7542,42.4877,Bitlis,minor,5879,1792335913
Ahlen,Ahlen,DE,DEU,Germany,51.7633,7.8911,North Rhine-Westphalia,,52582,1276843072
Ahlerstedt,Ahlerstedt,DE,DEU,Germany,53.4069,9.4528,Lower Saxony,,5367,1276982088
Ahmadli,Əhmədli,AZ,AZE,Azerbaijan,40.3839,49.9475,Bakı,,10974,1031512571
Ahmadnagar,Ahmadnagar,IN,IND,India,19.0833,74.7333,Mahārāshtra,,350859,1356972679
Ahmadpur,Ahmadpur,IN,IND,India,23.8301,87.6866,West Bengal,,9242,1356692177
Ahmadpur East,Ahmadpur East,PK,PAK,Pakistan,29.1453,71.2617,Punjab,,128112,1586824484
Ahmedabad,Ahmedabad,IN,IND,India,23.0300,72.5800,Gujarāt,minor,7717000,1356304381
Ahmetli,Ahmetli,TR,TUR,Turkey,38.5289,27.9447,Manisa,minor,9790,1792093004
Ahram,Ahram,IR,IRN,Iran,28.8825,51.2744,Būshehr,minor,12182,1364866540
Ahrarne,Ahrarne,UA,UKR,Ukraine,45.0186,34.0544,"Krym, Avtonomna Respublika",,6034,1804651887
Ahrensbok,Ahrensbök,DE,DEU,Germany,54.0167,10.5833,Schleswig-Holstein,,8290,1276154754
Ahrensburg,Ahrensburg,DE,DEU,Germany,53.6747,10.2411,Schleswig-Holstein,,33472,1276744963
Ahrensfelde,Ahrensfelde,DE,DEU,Germany,52.5758,13.5764,Brandenburg,,13543,1276671758
Ahtari,Ähtäri,FI,FIN,Finland,62.5500,24.0694,Etelä-Pohjanmaa,minor,6068,1246810016
Ahuachapan,Ahuachapán,SV,SLV,El Salvador,13.9214,-89.8450,Ahuachapán,admin,110511,1222480039
Ahualulco de Mercado,Ahualulco de Mercado,MX,MEX,Mexico,20.6992,-103.9556,Jalisco,minor,23362,1484137273
Ahuimanu,Ahuimanu,US,USA,United States,21.4379,-157.8404,Hawaii,,8023,1840029468
Ahumada,Ahumada,MX,MEX,Mexico,30.6186,-106.5122,Chihuahua,minor,8575,1484004336
Ahvaz,Ahvāz,IR,IRN,Iran,31.3203,48.6692,Khūzestān,admin,1184788,1364350188
Aibak,Aībak,AF,AFG,Afghanistan,36.2534,68.0394,Samangān,admin,4938,1004564619
Aibonito,Aibonito,PR,PRI,Puerto Rico,18.1398,-66.2659,Puerto Rico,,7820,1630035609
Aich,Aich,DE,DEU,Germany,48.6228,9.2372,Baden-Württemberg,,9901,1276245097
Aichach,Aichach,DE,DEU,Germany,48.4500,11.1333,Bavaria,minor,21434,1276090074
Aidlingen,Aidlingen,DE,DEU,Germany,48.6792,8.8969,Baden-Württemberg,,9024,1276002867
Aiea,Aiea,US,USA,United States,21.3865,-157.9232,Hawaii,,9638,1840029469
Aiffres,Aiffres,FR,FRA,France,46.2864,-0.4172,Nouvelle-Aquitaine,,5432,1250872369
Aigina,Aígina,GR,GRC,Greece,37.7467,23.4275,Attikí,minor,6867,1300658693
Aigio,Aígio,GR,GRC,Greece,38.2500,22.0833,Dytikí Elláda,minor,20422,1300238679
Aigle,Aigle,CH,CHE,Switzerland,46.3173,6.9646,Valais,,10131,1756593148
Aigua,Aiguá,UY,URY,Uruguay,-34.2000,-54.7500,Maldonado,,2692,1858068520
Aigues-Mortes,Aigues-Mortes,FR,FRA,France,43.5667,4.1925,Occitanie,,8456,1250061893
Aihua,Aihua,CN,CHN,China,24.4629,100.1350,Yunnan,minor,106054,1156317956
Aiken,Aiken,US,USA,United States,33.5310,-81.7268,South Carolina,,30869,1840013722
Ailan Mubage,Ailan Mubage,CN,CHN,China,43.9167,81.3167,Xinjiang,minor,526745,1156279608
Aileu,Aileu,TL,TLS,Timor-Leste,-8.7281,125.5664,Aileu,admin,,1626766880
Aimargues,Aimargues,FR,FRA,France,43.6847,4.2086,Occitanie,,5682,1250399058
Aimores,Aimorés,BR,BRA,Brazil,-19.4958,-41.0639,Minas Gerais,,25141,1076798379
Ain Abessa,’Aïn Abessa,DZ,DZA,Algeria,36.3000,5.2950,Sétif,,16770,1012074116
Ain Aicha,Ain Aicha,MA,MAR,Morocco,34.4833,-4.7000,Fès-Meknès,,25417,1504818592
Ain Arnat,’Aïn Arnat,DZ,DZA,Algeria,36.1833,5.3167,Sétif,,43551,1012453452
Ain Azel,’Aïn Azel,DZ,DZA,Algeria,35.8433,5.5219,Sétif,,48487,1012746080
Ain Beida,Aïn Beïda,DZ,DZA,Algeria,35.7964,7.3928,Oum el Bouaghi,,116064,1012021090
Ain Beida,Ain Beida,MA,MAR,Morocco,31.5850,-8.6080,Marrakech-Safi,,11978,1504673651
Ain Bida,Ain Bida,MA,MAR,Morocco,33.9856,-4.8931,Fès-Meknès,,7843,1504328927
Ain Cheggag,Aïn Cheggag,MA,MAR,Morocco,33.8833,-5.0333,Fès-Meknès,,20456,1504540865
Ain Defla,Aïn Defla,DZ,DZA,Algeria,36.2583,1.9583,Aïn Defla,admin,,1012656497
Ain El Aouda,Ain El Aouda,MA,MAR,Morocco,33.8111,-6.7922,Rabat-Salé-Kénitra,,49816,1504400263
Ain el Hammam,’Aïn el Hammam,DZ,DZA,Algeria,36.5714,4.3097,Tizi Ouzou,,20401,1012595495
Ain Harrouda,Aïn Harrouda,MA,MAR,Morocco,33.6372,-7.4483,Casablanca-Settat,,62420,1504718611
Ain Jemaa,Aïn Jemaa,MA,MAR,Morocco,34.0333,-5.8000,Fès-Meknès,,15265,1504158964
Ain Kansara,Ain Kansara,MA,MAR,Morocco,34.1500,-4.8314,Fès-Meknès,,12291,1504724133
Ain Legdah,Ain Legdah,MA,MAR,Morocco,34.1667,-4.5000,Fès-Meknès,,11422,1504429679
Ain Lehjer,Ain Lehjer,MA,MAR,Morocco,34.5949,-2.3720,Oriental,,8272,1504555478
Ain Leuh,’Aïn Leuh,MA,MAR,Morocco,33.3017,-5.3483,Fès-Meknès,,9669,1504668626
Ain Mediouna,Aïn Mediouna,MA,MAR,Morocco,34.5000,-4.5500,Fès-Meknès,,15770,1504603767
Ain Oussera,Aïn Oussera,DZ,DZA,Algeria,35.4489,2.9044,Djelfa,,101239,1012469007
Ain Roua,’Aïn Roua,DZ,DZA,Algeria,36.3344,5.1806,Sétif,,11499,1012529757
Ain Sefra,Aïn Sefra,DZ,DZA,Algeria,32.7500,-0.5833,Naama,,63420,1012884513
Ain Taoujdat,Aïn Taoujdat,MA,MAR,Morocco,33.9333,-5.2167,Fès-Meknès,,28288,1504497923
Ain Temouchent,Aïn Temouchent,DZ,DZA,Algeria,35.3044,-1.1400,Aïn Temouchent,admin,,1012763655
Ain Zaouia,Aïn Zaouïa,DZ,DZA,Algeria,36.5483,3.8942,Tizi Ouzou,,17320,1012695288
Ain Zora,Aïn Zora,MA,MAR,Morocco,34.6575,-3.5331,Oriental,,10601,1504442402
Ainan,Ainan,JP,JPN,Japan,32.9622,132.5833,Ehime,,19131,1392003348
Ainaro,Ainaro,TL,TLS,Timor-Leste,-8.9833,125.5000,Ainaro,admin,3085,1626118494
Aine Draham,Aïne Draham,TN,TUN,Tunisia,36.7833,8.7000,Jendouba,,35400,1788027300
Ainring,Ainring,DE,DEU,Germany,47.8136,12.9428,Bavaria,,9908,1276077892
Aintree,Aintree,GB,GBR,United Kingdom,53.4793,-2.9373,Liverpool,,6689,1826876428
Aioi,Aioi,JP,JPN,Japan,34.8036,134.4681,Hyōgo,,28350,1392132001
Aioun,Aioun,MR,MRT,Mauritania,16.6667,-9.6167,Hodh el Gharbi,admin,1423,1478255260
Aipe,Aipe,CO,COL,Colombia,3.2219,-75.2375,Huila,minor,29177,1170334427
Aiquile,Aiquile,BO,BOL,Bolivia,-18.1667,-65.1667,Cochabamba,,7381,1068121487
Air Force Academy,Air Force Academy,US,USA,United States,38.9942,-104.8639,Colorado,,6512,1840036508
Aira,Aira,JP,JPN,Japan,31.7283,130.6278,Kagoshima,,76610,1392003374
Airdrie,Airdrie,CA,CAN,Canada,51.2917,-114.0144,Alberta,,61581,1124990202
Airdrie,Airdrie,GB,GBR,United Kingdom,55.8600,-3.9800,North Lanarkshire,,37410,1826889162
Aire-sur-l'Adour,Aire-sur-l’Adour,FR,FRA,France,43.7031,-0.2628,Nouvelle-Aquitaine,,6119,1250537181
Aire-sur-la-Lys,Aire-sur-la-Lys,FR,FRA,France,50.6386,2.3967,Hauts-de-France,,9772,1250126430
Airmont,Airmont,US,USA,United States,41.0992,-74.0990,New York,,8786,1840004991
Airola,Airola,IT,ITA,Italy,41.0587,14.5592,Campania,,8390,1380330190
Airway Heights,Airway Heights,US,USA,United States,47.6460,-117.5792,Washington,,9485,1840018399
Aisai,Aisai,JP,JPN,Japan,35.1500,136.7333,Aichi,,60914,1392254584
Aisho,Aishō,JP,JPN,Japan,35.1689,136.2125,Shiga,,20913,1392003056
Ait Ali,Ait Ali,MA,MAR,Morocco,30.1739,-9.4881,Souss-Massa,,76646,1504009062
Ait Ali Mimoune,Ait Ali Mimoune,MA,MAR,Morocco,33.7808,-5.7822,Rabat-Salé-Kénitra,,8486,1504129497
Ait Athmane,Aït Athmane,MA,MAR,Morocco,30.6600,-5.4900,Drâa-Tafilalet,,5439,1504770221
Ait Ban,Ait Ban,MA,MAR,Morocco,30.0712,-9.1578,Souss-Massa,,5668,1504781280
Ait Ben Daoudi,Ait Ben Daoudi,MA,MAR,Morocco,31.6345,-7.6440,Marrakech-Safi,,18976,1504718613
Ait Bou Madhi,Aït Bou Madhi,DZ,DZA,Algeria,36.5009,4.2000,Tizi Ouzou,,6113,1012471822
Ait Bouchta,Aït Bouchta,MA,MAR,Morocco,35.1056,-3.8503,Tanger-Tétouan-Al Hoceïma,,18271,1504367001
Ait Bousarane,Ait Bousarane,MA,MAR,Morocco,31.7917,-7.0926,Béni Mellal-Khénifra,,19501,1504791291
Ait el Farsi,Aït el Farsi,MA,MAR,Morocco,31.3500,-5.3000,Drâa-Tafilalet,,5754,1504637843
Ait Faska,Aït Faska,MA,MAR,Morocco,31.5058,-7.7161,Marrakech-Safi,,26210,1504886930
Ait Hadi,Aït Hadi,MA,MAR,Morocco,31.3942,-8.7725,Marrakech-Safi,,7431,1504740675
Ait Hammou,Ait Hammou,MA,MAR,Morocco,32.2156,-8.1733,Marrakech-Safi,,7548,1504086741
Ait Hani,Aït Hani,MA,MAR,Morocco,31.7786,-5.4555,Drâa-Tafilalet,,10587,1504963024
Ait I'yach,Aït I’yach,MA,MAR,Morocco,32.6908,-4.9292,Drâa-Tafilalet,,11946,1504002583
Ait Ikkou,Ait Ikkou,MA,MAR,Morocco,33.5667,-5.6500,Fès-Meknès,,8865,1504000515
Ait Majdane,Aït Majdane,MA,MAR,Morocco,31.8514,-6.9658,Béni Mellal-Khénifra,,17572,1504617199
Ait Melloul,Ait Melloul,MA,MAR,Morocco,30.3342,-9.4972,Souss-Massa,,171847,1504134516
Ait Ouakrim,Aït Ouakrim,MA,MAR,Morocco,30.0297,-9.2478,Souss-Massa,,5817,1504983341
Ait Ouaoumana,Aït Ouaoumana,MA,MAR,Morocco,32.7128,-5.8042,Béni Mellal-Khénifra,,8849,1504002343
Ait Ourir,Ait Ourir,MA,MAR,Morocco,31.5644,-7.6628,Marrakech-Safi,,39108,1504763448
Ait Said,Ait Said,MA,MAR,Morocco,31.4458,-9.4383,Marrakech-Safi,,6819,1504779816
Ait Tagalla,Aït Tagalla,MA,MAR,Morocco,31.9167,-6.7167,Béni Mellal-Khénifra,,8268,1504861087
Ait Tamlil,Aït Tamlil,MA,MAR,Morocco,31.4800,-6.9400,Béni Mellal-Khénifra,,19930,1504250838
Ait Yaazem,Ait Yaazem,MA,MAR,Morocco,33.7333,-5.5833,Fès-Meknès,,16091,1504697698
Ait Yaich,Aït Yaïch,DZ,DZA,Algeria,36.5811,4.3303,Tizi Ouzou,,14439,1012677951
Ait Yazza,Ait Yazza,MA,MAR,Morocco,30.5063,-8.7931,Souss-Massa,,14259,1504675685
Ait Youssef Ou Ali,Aït Youssef Ou Ali,MA,MAR,Morocco,31.9833,-5.7833,Drâa-Tafilalet,,12673,1504087117
Aiuaba,Aiuaba,BR,BRA,Brazil,-6.5739,-40.1239,Ceará,,16997,1076600534
Aiud,Aiud,RO,ROU,Romania,46.3103,23.7167,Alba,,22876,1642981181
Aiuruoca,Aiuruoca,BR,BRA,Brazil,-21.9758,-44.6028,Minas Gerais,,5976,1076712702
Aix-en-Provence,Aix-en-Provence,FR,FRA,France,43.5263,5.4454,Provence-Alpes-Côte d’Azur,minor,143097,1250001687
Aix-les-Bains,Aix-les-Bains,FR,FRA,France,45.6885,5.9153,Auvergne-Rhône-Alpes,,29993,1250456565
Aixe-sur-Vienne,Aixe-sur-Vienne,FR,FRA,France,45.7964,1.1361,Nouvelle-Aquitaine,,5820,1250704462
Aiyomojok,Aiyomojok,CM,CMR,Cameroon,5.7504,8.9833,South-West,,5798,1120658014
Aizawa,Aizawa,JP,JPN,Japan,35.5289,139.3217,Kanagawa,,39260,1392673347
Aizawl,Āīzawl,IN,IND,India,23.7333,92.7167,Mizoram,admin,293416,1356342768
Aizenay,Aizenay,FR,FRA,France,46.7400,-1.6083,Pays de la Loire,,9694,1250153620
Aizkraukle,Aizkraukle,LV,LVA,Latvia,56.6008,25.2550,Aizkraukles Novads,admin,7044,1428407271
Aizubange,Aizubange,JP,JPN,Japan,37.5614,139.8217,Fukushima,,14906,1392003207
Aizumi,Aizumi,JP,JPN,Japan,34.1267,134.4950,Tokushima,,35269,1392003339
Aizumisato,Aizumisato,JP,JPN,Japan,37.4649,139.8342,Fukushima,,19078,1392003414
Aizuwakamatsu,Aizuwakamatsu,JP,JPN,Japan,37.4947,139.9297,Fukushima,,117924,1392003083
Aj Jourf,Aj Jourf,MA,MAR,Morocco,31.4903,-4.4014,Drâa-Tafilalet,,12302,1504982069
Ajaccio,Ajaccio,FR,FRA,France,41.9267,8.7369,Corsica,admin,70817,1250622666
Ajacuba,Ajacuba,MX,MEX,Mexico,20.0833,-99.1167,Hidalgo,,18872,1484132188
Ajax,Ajax,CA,CAN,Canada,43.8583,-79.0364,Ontario,,119677,1124382916
Ajdabiya,Ajdābiyā,LY,LBY,Libya,30.7700,20.2200,Al Wāḩāt,admin,143833,1434401280
Ajdir,Ajdir,MA,MAR,Morocco,35.1930,-3.9120,Tanger-Tétouan-Al Hoceïma,,5314,1504143111
Ajdovscina,Ajdovščina,SI,SVN,Slovenia,45.8884,13.9052,Ajdovščina,admin,6843,1705580792
Ajka,Ajka,HU,HUN,Hungary,47.1006,17.5522,Veszprém,minor,27995,1348671384
Ajmer,Ajmer,IN,IND,India,26.4680,74.6390,Rājasthān,,542321,1356058258
Ajodhya,Ajodhya,IN,IND,India,26.8036,82.2006,Uttar Pradesh,,49650,1356623948
Ajuricaba,Ajuricaba,BR,BRA,Brazil,-28.2389,-53.7708,Rio Grande do Sul,,6987,1076654836
Ajuy,Ajuy,PH,PHL,Philippines,11.1725,123.0196,Iloilo,,53462,1608027727
Ak-Dovurak,Ak-Dovurak,RU,RUS,Russia,51.1667,90.6000,Tyva,,13580,1643785448
Ak'ordat,Ak’ordat,ER,ERI,Eritrea,15.5500,37.8833,Gash Barka,,8857,1232800240
Akabira,Akabira,JP,JPN,Japan,43.5581,142.0442,Hokkaidō,,9644,1392691701
Akaiwa,Akaiwa,JP,JPN,Japan,34.7553,134.0189,Okayama,,42341,1392003260
Akarma,Akarma,MA,MAR,Morocco,31.8667,-7.6500,Marrakech-Safi,,5171,1504341141
Akat Amnuai,Akat Amnuai,TH,THA,Thailand,17.5898,103.9859,Sakon Nakhon,minor,9013,1764592273
Akbarabad,Akbarābād,IR,IRN,Iran,29.2464,52.7792,Fārs,,5837,1364972424
Akbarpur,Akbarpur,IN,IND,India,26.5200,82.6200,Uttar Pradesh,,42248,1356710855
Akbou,Akbou,DZ,DZA,Algeria,36.4667,4.5333,Bejaïa,,52282,1012950888
Akcaabat,Akçaabat,TR,TUR,Turkey,41.0167,39.5833,Trabzon,minor,7600,1792536331
Akcadag,Akçadağ,TR,TUR,Turkey,38.3442,37.9742,Malatya,minor,5995,1792886616
Akcakoca,Akçakoca,TR,TUR,Turkey,41.0806,31.1297,Düzce,minor,22416,1792736613
Aketi,Aketi,CD,COD,Congo (Kinshasa),2.7405,23.7800,Bas-Uélé,,58601,1180273302
Akhalkalaki,Akhalkalaki,GE,GEO,Georgia,41.4056,43.4861,Samtskhe-Javakheti,minor,8295,1268261654
Akhaltsikhe,Akhaltsikhe,GE,GEO,Georgia,41.6389,42.9861,Samtskhe-Javakheti,admin,14000,1268352935
Akhisar,Akhisar,TR,TUR,Turkey,38.9167,27.8333,Manisa,minor,46167,1792301869
Akhmeta,Akhmeta,GE,GEO,Georgia,42.0333,45.2000,K’akheti,minor,7105,1268885821
Akhmim,Akhmīm,EG,EGY,Egypt,26.5642,31.7461,Sūhāj,,101509,1818295057
Akhnur,Akhnūr,IN,IND,India,32.9000,74.7353,Jammu and Kashmīr,,10770,1356433902
Akhtubinsk,Akhtubinsk,RU,RUS,Russia,48.2833,46.1667,Astrakhanskaya Oblast’,,37883,1643207712
Akhty,Akhty,RU,RUS,Russia,41.4647,47.7400,Dagestan,,13405,1643631394
Akhuryan,Akhuryan,AM,ARM,Armenia,40.7814,43.8964,Shirak,,9668,1051730865
Aki,Aki,JP,JPN,Japan,33.5025,133.9072,Kōchi,,16090,1392875978
Akil,Akil,MX,MEX,Mexico,20.2656,-89.3478,Yucatán,,10176,1484515773
Akiruno,Akiruno,JP,JPN,Japan,35.7289,139.2942,Tōkyō,,79600,1392270849
Akishima,Akishima,JP,JPN,Japan,35.7056,139.3536,Tōkyō,,112110,1392041019
Akita,Akita,JP,JPN,Japan,39.7197,140.1025,Akita,admin,302984,1392129688
Akitakata,Akitakata,JP,JPN,Japan,34.6664,132.7039,Hiroshima,,27249,1392003327
Akjoujt,Akjoujt,MR,MRT,Mauritania,19.7470,-14.3910,Inchiri,admin,370,1478247793
Akka,Akka,MA,MAR,Morocco,29.3908,-8.2564,Souss-Massa,,6870,1504969924
Akka Irene,Akka Irene,MA,MAR,Morocco,29.9919,-7.5322,Souss-Massa,,6452,1504794987
Aklim,Aklim,MA,MAR,Morocco,34.9292,-2.4353,Oriental,,9695,1504687369
Aklvidu,Aklvidu,IN,IND,India,16.6000,81.3833,Andhra Pradesh,,24506,1356049380
Akola,Akola,IN,IND,India,20.7333,77.0000,Mahārāshtra,,425817,1356089496
Akouda,Akouda,TN,TUN,Tunisia,35.8712,10.5712,Sousse,,34494,1788415117
Akranes,Akranes,IS,ISL,Iceland,64.3167,-22.1000,Vesturland,,7411,1352521514
Akrehamn,Åkrehamn,NO,NOR,Norway,59.2605,5.1869,Rogaland,,7873,1578208239
Akron,Akron,US,USA,United States,41.0798,-81.5219,Ohio,,565208,1840000791
Aksakovo,Aksakovo,BG,BGR,Bulgaria,43.2608,27.8159,Varna,,8064,1100727470
Aksaray,Aksaray,TR,TUR,Turkey,38.3686,34.0297,Aksaray,admin,70359,1792650390
Aksay,Aksay,KZ,KAZ,Kazakhstan,51.1714,53.0349,Batys Qazaqstan,,34799,1398621920
Aksay,Aksay,RU,RUS,Russia,47.2667,39.8667,Rostovskaya Oblast’,minor,45078,1643659025
Aksay,Aksay,RU,RUS,Russia,43.3725,46.4450,Dagestan,,9442,1643918387
Aksehir,Akşehir,TR,TUR,Turkey,38.3592,31.4164,Konya,minor,25269,1792359338
Aksu,Aksu,CN,CHN,China,41.1664,80.2500,Xinjiang,minor,535657,1156436913
Aksum,Āksum,ET,ETH,Ethiopia,14.1284,38.7173,Tigray,,66800,1231573651
Akto,Akto,CN,CHN,China,39.1468,75.9411,Xinjiang,,36270,1156038220
Akune,Akune,JP,JPN,Japan,32.0144,130.1928,Kagoshima,,19009,1392003418
Akure,Akure,NG,NGA,Nigeria,7.2500,5.1950,Ondo,admin,847903,1566568277
Akureyri,Akureyri,IS,ISL,Iceland,65.6833,-18.1000,Norðurland Eystra,,18925,1352098424
Akyar,Akyar,RU,RUS,Russia,51.8636,58.2106,Bashkortostan,,6941,1643241309
Akyazi,Akyazı,TR,TUR,Turkey,40.6833,30.6253,Sakarya,minor,9090,1792667046
Al `Alamayn,Al ‘Alamayn,EG,EGY,Egypt,30.8333,28.9500,Maţrūḩ,,2413,1818237095
Al `Amadiyah,Al ‘Amādīyah,IQ,IRQ,Iraq,37.0922,43.4878,Dahūk,minor,11000,1368510045
Al `Amarah,Al ‘Amārah,IQ,IRQ,Iraq,31.8333,47.1500,Maysān,admin,511500,1368336235
Al `Aqabah,Al ‘Aqabah,JO,JOR,Jordan,29.5167,35.0000,Al ‘Aqabah,admin,140000,1400618058
Al `Arish,Al ‘Arīsh,EG,EGY,Egypt,31.1249,33.8006,Shamāl Sīnā’,admin,178651,1818291145
Al `Ayn,Al ‘Ayn,AE,ARE,United Arab Emirates,24.2075,55.7447,Abū Z̧aby,,766936,1784674685
Al `Aziziyah,Al ‘Azīzīyah,LY,LBY,Libya,32.5319,13.0175,Al Jafārah,admin,,1434450111
Al `Uqaylah,Al ‘Uqaylah,LY,LBY,Libya,30.2558,19.1994,Al Wāḩāt,,100,1434822941
Al Aaroui,Al Aaroui,MA,MAR,Morocco,35.0104,-3.0073,Oriental,,47599,1504779155
Al Ahmadi,Al Aḩmadī,KW,KWT,Kuwait,29.0769,48.0838,Al Aḩmadī,,68763,1414024487
Al Atarib,Al Atārib,SY,SYR,Syria,36.1389,36.8300,Ḩalab,minor,10657,1760645780
Al Badari,Al Badārī,EG,EGY,Egypt,26.9925,31.4156,Asyūţ,,42770,1818459800
Al Bahah,Al Bāḩah,SA,SAU,Saudi Arabia,20.0129,41.4677,Al Bāḩah,admin,21983,1682121855
Al Balyana,Al Balyanā,EG,EGY,Egypt,26.2329,31.9993,Sūhāj,,46997,1818610123
Al Basrah,Al Başrah,IQ,IRQ,Iraq,30.5150,47.8100,Al Başrah,admin,1326564,1368714645
Al Bayda',Al Bayḑā’,LY,LBY,Libya,32.7628,21.7550,Al Jabal al Akhḑar,admin,250000,1434263017
Al Bayda',Al Bayḑā’,YE,YEM,Yemen,13.9790,45.5740,Al Bayḑā’,admin,37821,1887788283
Al Brouj,Al Brouj,MA,MAR,Morocco,32.5131,-7.1957,Casablanca-Settat,,19235,1504448147
Al Buraymi,Al Buraymī,OM,OMN,Oman,24.2558,55.8025,Al Buraymī,admin,,1512959921
Al Fallujah,Al Fallūjah,IQ,IRQ,Iraq,33.3500,43.7833,Al Anbār,minor,326471,1368081888
Al Faw,Al Fāw,IQ,IRQ,Iraq,29.9800,48.4700,Al Başrah,minor,105080,1368130668
Al Fayd,Al Fayd,MA,MAR,Morocco,30.6167,-8.2167,Souss-Massa,,12011,1504770478
Al Fayyum,Al Fayyūm,EG,EGY,Egypt,29.3000,30.8333,Al Fayyūm,admin,315940,1818281002
Al Fqih Ben Calah,Al Fqih Ben Çalah,MA,MAR,Morocco,32.6000,-6.7667,Béni Mellal-Khénifra,,102019,1504975687
Al Fujayrah,Al Fujayrah,AE,ARE,United Arab Emirates,25.1308,56.3347,Al Fujayrah,admin,93673,1784909196
Al Ghardaqah,Al Ghardaqah,EG,EGY,Egypt,27.2578,33.8117,Al Baḩr al Aḩmar,admin,160901,1818666245
Al Ghayzah,Al Ghayz̧ah,YE,YEM,Yemen,16.2394,52.1638,Al Mahrah,admin,27404,1887000479
Al Hajar al Aswad,Al Ḩajar al Aswad,SY,SYR,Syria,33.4581,36.3053,Rīf Dimashq,minor,101827,1760587307
Al Hasakah,Al Ḩasakah,SY,SYR,Syria,36.4833,40.7500,Al Ḩasakah,admin,128100,1760476337
Al Hawiyah,Al Ḩawīyah,SA,SAU,Saudi Arabia,21.4411,40.4975,Makkah al Mukarramah,,18468,1682803387
Al Hayy,Al Ḩayy,IQ,IRQ,Iraq,32.1742,46.0433,Wāsiţ,minor,82900,1368988553
Al Hazm,Al Ḩazm,YE,YEM,Yemen,16.1641,44.7769,Al Jawf,admin,,1887549671
Al Hibah,Al Ḩībah,EG,EGY,Egypt,28.8000,30.9167,Al Baḩr al Aḩmar,,16209,1818176638
Al Hillah,Al Ḩillah,IQ,IRQ,Iraq,32.4833,44.4333,Bābil,admin,541034,1368916692
Al Hillah,Al Ḩillah,SA,SAU,Saudi Arabia,23.4895,46.7564,Ar Riyāḑ,,594605,1682494753
Al Hisn,Al Ḩişn,JO,JOR,Jordan,32.4870,35.8800,Irbid,minor,35085,1400378169
Al Hoceima,Al Hoceïma,MA,MAR,Morocco,35.2472,-3.9322,Tanger-Tétouan-Al Hoceïma,,56716,1504990575
Al Hudaydah,Al Ḩudaydah,YE,YEM,Yemen,14.8022,42.9511,Al Ḩudaydah,admin,548433,1887984890
Al Hufuf,Al Hufūf,SA,SAU,Saudi Arabia,25.3608,49.5997,Ash Sharqīyah,,660788,1682958157
Al Husayniyah,Al Ḩusaynīyah,EG,EGY,Egypt,30.8617,31.9181,Ash Sharqīyah,,30825,1818070991
Al Jabin,Al Jabīn,YE,YEM,Yemen,14.7040,43.5990,Raymah,admin,,1887910100
Al Jaghbub,Al Jaghbūb,LY,LBY,Libya,29.7504,24.5166,Al Buţnān,,1744,1434128425
Al Jahra',Al Jahrā’,KW,KWT,Kuwait,29.3375,47.6581,Al Jahrā’,,194193,1414182001
Al Jawf,Al Jawf,LY,LBY,Libya,24.2167,23.3000,Al Kufrah,admin,24132,1434996940
Al Jubayl,Al Jubayl,SA,SAU,Saudi Arabia,27.0046,49.6460,Ash Sharqīyah,,237274,1682564079
Al Kafr,Al Kafr,SY,SYR,Syria,32.6333,36.6417,As Suwaydā’,,7458,1760157537
Al Karak,Al Karak,JO,JOR,Jordan,31.1833,35.7000,Al Karak,admin,21678,1400073941
Al Karnak,Al Karnak,EG,EGY,Egypt,25.7184,32.6581,Al Uqşur,,26488,1818862945
Al Kharj,Al Kharj,SA,SAU,Saudi Arabia,24.1556,47.3120,Ar Riyāḑ,,298428,1682947408
Al Kharjah,Al Khārjah,EG,EGY,Egypt,25.4400,30.5500,Al Wādī al Jadīd,admin,49991,1818872500
Al Khawr,Al Khawr,QA,QAT,Qatar,25.6839,51.5058,Al Khawr wa adh Dhakhīrah,admin,,1634786937
Al Khmissat,Al Khmissat,MA,MAR,Morocco,33.8100,-6.0600,Rabat-Salé-Kénitra,,131542,1504079907
Al Khubar,Al Khubar,SA,SAU,Saudi Arabia,26.3000,50.2167,Ash Sharqīyah,,219679,1682059414
Al Khums,Al Khums,LY,LBY,Libya,32.6604,14.2600,Al Marqab,,201943,1434172839
Al Kufah,Al Kūfah,IQ,IRQ,Iraq,32.0300,44.4000,An Najaf,minor,166100,1368929021
Al Kut,Al Kūt,IQ,IRQ,Iraq,32.4907,45.8304,Wāsiţ,admin,321521,1368569694
Al Lataminah,Al Laţāminah,SY,SYR,Syria,35.3208,36.6225,Ḩamāh,,16267,1760263860
Al M'aziz,Al M’aziz,MA,MAR,Morocco,33.7039,-6.3400,Rabat-Salé-Kénitra,,11502,1504103308
Al Madamud,Al Madāmūd,EG,EGY,Egypt,25.7333,32.7125,Al Uqşur,,15091,1818431308
Al Madrah Sama'il,Al Madrah Samā’il,OM,OMN,Oman,23.3032,57.9782,Ad Dākhilīyah,,47718,1512000205
Al Mafraq,Al Mafraq,JO,JOR,Jordan,32.2833,36.2333,Al Mafraq,admin,57118,1400040712
Al Mahwit,Al Maḩwīt,YE,YEM,Yemen,15.4694,43.5453,Al Maḩwīt,admin,10593,1887764813
Al Majma`ah,Al Majma‘ah,SA,SAU,Saudi Arabia,25.9039,45.3456,Ar Riyāḑ,,12065,1682506946
Al Malikiyah,Al Mālikīyah,SY,SYR,Syria,37.1031,42.0822,Al Ḩasakah,minor,39000,1760784945
Al Manaqil,Al Manāqil,SD,SDN,Sudan,14.2504,32.9800,Al Gazira,,151827,1729742500
Al Mansurah,Al Manşūrah,EG,EGY,Egypt,31.0500,31.3833,Ad Daqahlīyah,admin,960423,1818255319
Al Marj,Al Marj,LY,LBY,Libya,32.5005,20.8300,Al Marj,admin,169540,1434742923
Al Mayadin,Al Mayādīn,SY,SYR,Syria,35.0208,40.4533,Dayr az Zawr,minor,48922,1760808069
Al Mazra`ah,Al Mazra‘ah,SY,SYR,Syria,32.7828,36.4833,As Suwaydā’,minor,7547,1760015250
Al Mijlad,Al Mijlad,SD,SDN,Sudan,11.0337,27.7333,Western Kordofan,,19997,1729768355
Al Minshah,Al Minshāh,EG,EGY,Egypt,26.4769,31.8036,Sūhāj,,65484,1818211426
Al Minya,Al Minyā,EG,EGY,Egypt,28.0833,30.7500,Al Minyā,admin,236043,1818607968
Al Mubarraz,Al Mubarraz,SA,SAU,Saudi Arabia,25.4416,49.6642,Ash Sharqīyah,,298562,1682484039
Al Muharraq,Al Muḩarraq,BH,BHR,Bahrain,26.2500,50.6167,Al Muḩarraq,,75000,1048992336
Al Mukalla,Al Mukallā,YE,YEM,Yemen,14.5333,49.1333,Ḩaḑramawt,admin,144137,1887202594
Al Mulayhah al Gharbiyah,Al Mulayḩah al Gharbīyah,SY,SYR,Syria,32.7515,36.3447,Dar‘ā,,5454,1760444535
Al Musayfirah,Al Musayfirah,SY,SYR,Syria,32.6322,36.3386,Dar‘ā,minor,10466,1760039988
Al Musayyib,Al Musayyib,IQ,IRQ,Iraq,32.7786,44.2900,Bābil,minor,76454,1368000434
Al Muzayrib,Al Muzayrīb,SY,SYR,Syria,32.7109,36.0266,Dar‘ā,minor,12640,1760935578
Al Orjane,Al Orjane,MA,MAR,Morocco,33.4000,-3.7167,Fès-Meknès,,7740,1504370542
Al Qa`idah,Al Qā‘idah,YE,YEM,Yemen,13.7569,44.1392,Ibb,,39254,1887959673
Al Qamishli,Al Qāmishlī,SY,SYR,Syria,37.0500,41.2167,Al Ḩasakah,minor,184231,1760560461
Al Qaryatayn,Al Qaryatayn,SY,SYR,Syria,34.2294,37.2406,Ḩimş,minor,37820,1760172806
Al Qasr,Al Qaşr,EG,EGY,Egypt,25.6959,28.8837,Al Wādī al Jadīd,,4474,1818618401
Al Qatif,Al Qaţīf,SA,SAU,Saudi Arabia,26.5196,50.0115,Ash Sharqīyah,,368892,1682001245
Al Qays,Al Qays,EG,EGY,Egypt,28.4833,30.7833,Al Minyā,,20603,1818728041
Al Qbab,Al Qbab,MA,MAR,Morocco,32.7333,-5.5167,Béni Mellal-Khénifra,,16157,1504689479
Al Quds,Al Quds,XW,XWB,West Bank,31.7764,35.2269,,primary,,1934000006
Al Qunaytirah,Al Qunayţirah,SY,SYR,Syria,33.1256,35.8239,Al Qunayţirah,admin,37022,1760132692
Al Qunfudhah,Al Qunfudhah,SA,SAU,Saudi Arabia,19.1264,41.0789,Makkah al Mukarramah,,157,1682434353
Al Qurayyat,Al Qurayyāt,SA,SAU,Saudi Arabia,31.3333,37.3333,Al Jawf,,10000,1682805250
Al Qusayr,Al Quşayr,SY,SYR,Syria,34.5089,36.5797,Ḩimş,minor,46772,1760157542
Al Qusiyah,Al Qūşīyah,EG,EGY,Egypt,27.4403,30.8183,Asyūţ,,69388,1818093562
Al Qutaylibiyah,Al Quţaylibīyah,SY,SYR,Syria,35.2889,36.0153,Al Lādhiqīyah,minor,5566,1760000008
Al Quway`iyah,Al Quway‘īyah,SA,SAU,Saudi Arabia,24.0737,45.2806,Ar Riyāḑ,,8712,1682154232
Al Wajh,Al Wajh,SA,SAU,Saudi Arabia,26.2324,36.4636,Tabūk,,43237,1682508460
Al Wakrah,Al Wakrah,QA,QAT,Qatar,25.1800,51.6100,Al Wakrah,admin,87970,1634261569
Ala,Ala,IT,ITA,Italy,45.7500,11.0000,Trentino-Alto Adige,,8887,1380811104
Alabaster,Alabaster,US,USA,United States,33.2198,-86.8225,Alabama,,33487,1840013756
Alabat,Alabat,PH,PHL,Philippines,14.1023,122.0136,Quezon,,15936,1608115829
Alabel,Alabel,PH,PHL,Philippines,6.1023,125.2868,Sarangani,admin,88294,1608579431
Alacam,Alaçam,TR,TUR,Turkey,41.6100,35.5950,Samsun,minor,7833,1792375686
Alachua,Alachua,US,USA,United States,29.7778,-82.4831,Florida,,9899,1840014020
Alacuas,Alacuás,ES,ESP,Spain,39.4583,-0.4628,Valencia,,29649,1724760114
Alafaya,Alafaya,US,USA,United States,28.5278,-81.1865,Florida,,91068,1840029102
Alagir,Alagir,RU,RUS,Russia,43.0417,44.2106,North Ossetia,minor,20043,1643555747
Alagoa Grande,Alagoa Grande,BR,BRA,Brazil,-7.0822,-35.6000,Paraíba,,28646,1076229979
Alagoa Nova,Alagoa Nova,BR,BRA,Brazil,-7.0473,-35.7540,Paraíba,,20500,1076318882
Alagoinha,Alagoinha,BR,BRA,Brazil,-6.9500,-35.5450,Paraíba,,14284,1076535810
Alagoinha,Alagoinha,BR,BRA,Brazil,-8.4658,-36.7758,Pernambuco,,13759,1076976847
Alagoinhas,Alagoinhas,BR,BRA,Brazil,-12.1356,-38.4189,Bahia,,154495,1076155953
Alagon,Alagón,ES,ESP,Spain,41.7667,-1.1167,Aragon,,7121,1724896392
Alajarvi,Alajärvi,FI,FIN,Finland,63.0000,23.8167,Etelä-Pohjanmaa,minor,10006,1246799974
Alajuela,Alajuela,CR,CRI,Costa Rica,10.0311,-84.2041,Alajuela,admin,48326,1188394508
Alamada,Alamada,PH,PHL,Philippines,7.3868,124.5534,Cotabato,,68659,1608117314
Alambari,Alambari,BR,BRA,Brazil,-23.5667,-47.8861,São Paulo,,5560,1076631769
Alameda,Alameda,ES,ESP,Spain,37.2000,-4.6500,Andalusia,,5453,1724650098
Alameda,Alameda,US,USA,United States,37.7670,-122.2672,California,,77624,1840018913
Alamedin,Alamedin,KG,KGZ,Kyrgyzstan,42.8900,74.6300,Chüy,,11773,1417392357
Alaminos,Alaminos,PH,PHL,Philippines,16.1553,119.9808,Pangasinan,,99397,1608828653
Alaminos,Alaminos,PH,PHL,Philippines,14.0635,121.2451,Laguna,,51619,1608904750
Alamo,Alamo,US,USA,United States,26.1811,-98.1177,Texas,,19910,1840019732
Alamo,Alamo,US,USA,United States,37.8546,-122.0130,California,,14905,1840017609
Alamo Heights,Alamo Heights,US,USA,United States,29.4828,-98.4682,Texas,,8614,1840019653
Alamogordo,Alamogordo,US,USA,United States,32.8837,-105.9624,New Mexico,,33513,1840019403
Alamos,Álamos,MX,MEX,Mexico,27.0275,-108.9400,Sonora,minor,10961,1484052656
Alamosa,Alamosa,US,USA,United States,37.4751,-105.8769,Colorado,,10652,1840018921
Alandroal,Alandroal,PT,PRT,Portugal,38.7000,-7.4000,Évora,minor,5843,1620526811
Alangalang,Alangalang,PH,PHL,Philippines,11.2000,124.8500,Leyte,,57185,1608580659
Alanya,Alanya,TR,TUR,Turkey,36.5436,31.9997,Antalya,minor,12436,1792233416
Alapayevsk,Alapayevsk,RU,RUS,Russia,57.8500,61.7000,Sverdlovskaya Oblast’,,37526,1643648315
Alapli,Alaplı,TR,TUR,Turkey,41.1833,31.3833,Zonguldak,minor,12105,1792284635
Alaro,Alaró,ES,ESP,Spain,39.7067,2.7908,Balearic Islands,,5741,1724939074
Alasehir,Alaşehir,TR,TUR,Turkey,38.3500,28.5167,Manisa,minor,16012,1792803121
Alashankou,Alashankou,CN,CHN,China,45.1714,82.5731,Xinjiang,minor,40000,1156292896
Alassio,Alassio,IT,ITA,Italy,44.0079,8.1730,Liguria,,10791,1380546015
Alat,Ələt,AZ,AZE,Azerbaijan,39.9483,49.4067,Bakı,,12600,1031947328
Alatri,Alatri,IT,ITA,Italy,41.7264,13.3422,Lazio,,28763,1380009791
Alatyr,Alatyr,RU,RUS,Russia,54.8500,46.5833,Chuvashiya,,11086,1643942115
Alausi,Alausí,EC,ECU,Ecuador,-2.1900,-78.8500,Chimborazo,,14294,1218578121
Alaverdi,Alaverdi,AM,ARM,Armenia,41.1333,44.6500,Lorri,,13000,1051787137
Alavus,Alavus,FI,FIN,Finland,62.5861,23.6194,Etelä-Pohjanmaa,minor,12044,1246444159
Alayor,Alayor,ES,ESP,Spain,39.9342,4.1400,Balearic Islands,,9477,1724740843
Alba,Alba,IT,ITA,Italy,44.6915,8.0256,Piedmont,,31498,1380267586
Alba de Tormes,Alba de Tormes,ES,ESP,Spain,40.8333,-5.5000,Castille-Leon,,5159,1724525216
Alba Iulia,Alba Iulia,RO,ROU,Romania,46.0764,23.5728,Alba,admin,63536,1642449522
Albacete,Albacete,ES,ESP,Spain,38.9956,-1.8558,Castille-La Mancha,minor,172722,1724000069
Albaida,Albaida,ES,ESP,Spain,38.8369,-0.5156,Valencia,,5975,1724163496
Albal,Albal,ES,ESP,Spain,39.3972,-0.4156,Valencia,,16646,1724860489
Alban,Albán,CO,COL,Colombia,4.8783,-74.4383,Cundinamarca,minor,5956,1170591987
Albanella,Albanella,IT,ITA,Italy,40.4833,15.1167,Campania,,6394,1380268149
Albania,Albania,CO,COL,Colombia,1.3289,-75.8783,Caquetá,minor,6394,1170417571
Albano Laziale,Albano Laziale,IT,ITA,Italy,41.7333,12.6667,Lazio,,41314,1380821881
Albano Sant'Alessandro,Albano Sant’Alessandro,IT,ITA,Italy,45.6858,9.7678,Lombardy,,8244,1380974052
Albany,Albany,AU,AUS,Australia,-35.0228,117.8814,Western Australia,,29373,1036047365
Albany,Albany,US,USA,United States,42.6664,-73.7987,New York,admin,586383,1840000417
Albany,Albany,US,USA,United States,31.5776,-84.1762,Georgia,,89217,1840013864
Albany,Albany,US,USA,United States,44.6274,-123.0966,Oregon,,62880,1840018605
Albany,Albany,US,USA,United States,37.8898,-122.3018,California,,19696,1840028140
Albaredo d'Adige,Albaredo d’Adige,IT,ITA,Italy,45.3167,11.2667,Veneto,,5190,1380651165
Albarradas,Albarradas,MX,MEX,Mexico,17.0667,-96.2000,Oaxaca,minor,7965,1484117496
Albatera,Albatera,ES,ESP,Spain,38.1786,-0.8681,Valencia,,12714,1724280918
Albbruck,Albbruck,DE,DEU,Germany,47.5892,8.1292,Baden-Württemberg,,7335,1276244529
Albemarle,Albemarle,US,USA,United States,35.3594,-80.1915,North Carolina,,17185,1840013444
Albenga,Albenga,IT,ITA,Italy,44.0491,8.2130,Liguria,,24042,1380307501
Albergaria-a-Velha,Albergaria-a-Velha,PT,PRT,Portugal,40.6936,-8.4806,Aveiro,minor,25252,1620890833
Alberique,Alberique,ES,ESP,Spain,39.1167,-0.5211,Valencia,,10571,1724900545
Alberobello,Alberobello,IT,ITA,Italy,40.7841,17.2375,Puglia,,10725,1380601560
Albert,Albert,FR,FRA,France,50.0019,2.6522,Hauts-de-France,,9810,1250793960
Albert Lea,Albert Lea,US,USA,United States,43.6547,-93.3642,Minnesota,,17656,1840006824
Albertirsa,Albertirsa,HU,HUN,Hungary,47.2400,19.6067,Pest,,12532,1348408587
Alberton,Alberton,ZA,ZAF,South Africa,-26.2672,28.1219,Gauteng,,121536,1710738396
Albertson,Albertson,US,USA,United States,40.7715,-73.6482,New York,,5225,1840005227
Albertville,Albertville,FR,FRA,France,45.6758,6.3925,Auvergne-Rhône-Alpes,minor,19214,1250427117
Albertville,Albertville,US,USA,United States,34.2634,-86.2107,Alabama,,37775,1840013599
Albertville,Albertville,US,USA,United States,45.2364,-93.6618,Minnesota,,7539,1840006706
Albi,Albi,FR,FRA,France,43.9289,2.1464,Occitanie,minor,48993,1250988425
Albiate,Albiate,IT,ITA,Italy,45.6667,9.2500,Lombardy,,6352,1380039239
Albignasego,Albignasego,IT,ITA,Italy,45.3500,11.8667,Veneto,,26071,1380732466
Albina,Albina,SR,SUR,Suriname,5.5000,-54.0500,Marowijne,admin,5247,1740921776
Albinea,Albinea,IT,ITA,Italy,44.6167,10.6000,Emilia-Romagna,,8830,1380433686
Albino,Albino,IT,ITA,Italy,45.7606,9.7969,Lombardy,,17903,1380409115
Albion,Albion,US,USA,United States,42.2478,-84.7572,Michigan,,8990,1840003175
Albion,Albion,US,USA,United States,43.2460,-78.1902,New York,,7738,1840004265
Albisola Marina,Albisola Marina,IT,ITA,Italy,44.3273,8.5031,Liguria,,5387,1380580046
Albizzate,Albizzate,IT,ITA,Italy,45.7167,8.8000,Lombardy,,5299,1380334087
Alblasserdam,Alblasserdam,NL,NLD,Netherlands,51.8667,4.6667,Zuid-Holland,minor,20069,1528038126
Albolote,Albolote,ES,ESP,Spain,37.2306,-3.6569,Andalusia,,19128,1724140876
Alboraya,Alboraya,ES,ESP,Spain,39.5000,-0.3522,Valencia,,24904,1724241743
Albox,Albox,ES,ESP,Spain,37.3833,-2.1333,Andalusia,,12070,1724868693
Albstadt,Albstadt,DE,DEU,Germany,48.2119,9.0239,Baden-Württemberg,,45465,1276969750
Albu Kamal,Ālbū Kamāl,SY,SYR,Syria,34.4500,40.9186,Dayr az Zawr,minor,52020,1760836213
Albuera,Albuera,PH,PHL,Philippines,10.9186,124.6923,Leyte,,47151,1608775659
Albufeira,Albufeira,PT,PRT,Portugal,37.0897,-8.2458,Faro,minor,22794,1620078404
Albunol,Albuñol,ES,ESP,Spain,36.8000,-3.2000,Andalusia,,7473,1724930842
Albuquerque,Albuquerque,US,USA,United States,35.1053,-106.6464,New Mexico,,761195,1840019176
Alburquerque,Alburquerque,ES,ESP,Spain,39.2167,-7.0000,Extremadura,,5245,1724602614
Alburquerque,Alburquerque,PH,PHL,Philippines,9.6104,123.9549,Bohol,,11246,1608280390
Albury,Albury,AU,AUS,Australia,-36.0806,146.9158,New South Wales,,4804,1036076542
Alcacer do Sal,Alcácer do Sal,PT,PRT,Portugal,38.3725,-8.5133,Setúbal,minor,13046,1620351188
Alcala,Alcalá,CO,COL,Colombia,4.6736,-75.7825,Valle del Cauca,minor,23195,1170054347
Alcala,Alcala,PH,PHL,Philippines,15.8468,120.5218,Pangasinan,,48908,1608910031
Alcala,Alcala,PH,PHL,Philippines,17.9031,121.6590,Cagayan,,41295,1608450739
Alcala de Chivert,Alcalá de Chivert,ES,ESP,Spain,40.3042,0.2256,Valencia,,6691,1724287695
Alcala de Guadaira,Alcalá de Guadaira,ES,ESP,Spain,37.3333,-5.8500,Andalusia,,75546,1724537443
Alcala de Henares,Alcalá de Henares,ES,ESP,Spain,40.4818,-3.3643,Madrid,,195982,1724663253
Alcala de los Gazules,Alcalá de los Gazules,ES,ESP,Spain,36.4667,-5.7167,Andalusia,,5245,1724834057
Alcala del Valle,Alcalá del Valle,ES,ESP,Spain,36.9000,-5.1667,Andalusia,,5031,1724816844
Alcala la Real,Alcalá la Real,ES,ESP,Spain,37.4500,-3.9167,Andalusia,,21623,1724682908
Alcamo,Alcamo,IT,ITA,Italy,37.9667,12.9667,Sicilia,,45273,1380182511
Alcanar,Alcanar,ES,ESP,Spain,40.5430,0.4808,Catalonia,,9579,1724553541
Alcanena,Alcanena,PT,PRT,Portugal,39.4667,-8.6667,Santarém,minor,13868,1620799086
Alcaniz,Alcañiz,ES,ESP,Spain,41.0511,-0.1336,Aragon,,16029,1724184358
Alcantara,Alcântara,BR,BRA,Brazil,-2.4089,-44.4150,Maranhão,,21851,1076650057
Alcantara,Alcantara,PH,PHL,Philippines,12.2584,122.0543,Romblon,,17171,1608033218
Alcantara,Alcantara,PH,PHL,Philippines,9.9715,123.4047,Cebu,minor,16910,1608085067
Alcantaras,Alcântaras,BR,BRA,Brazil,-3.5889,-40.5458,Ceará,,11321,1076451406
Alcantarilla,Alcantarilla,ES,ESP,Spain,37.9722,-1.2094,Murcia,,42559,1724229842
Alcantil,Alcantil,BR,BRA,Brazil,-7.7439,-36.0558,Paraíba,,5451,1076608523
Alcarraz,Alcarraz,ES,ESP,Spain,41.5638,0.5241,Catalonia,,9678,1724729662
Alcaudete,Alcaudete,ES,ESP,Spain,37.5833,-4.1000,Andalusia,,10434,1724011838
Alcazar de San Juan,Alcázar de San Juan,ES,ESP,Spain,39.4056,-3.2056,Castille-La Mancha,,30548,1724889534
Alchevsk,Alchevsk,UA,UKR,Ukraine,48.4672,38.7983,Luhans’ka Oblast’,minor,105398,1804025187
Alcira,Alcira,ES,ESP,Spain,39.1500,-0.4350,Valencia,,44865,1724303009
Alcoa,Alcoa,US,USA,United States,35.8073,-83.9752,Tennessee,,9980,1840013404
Alcobaca,Alcobaça,BR,BRA,Brazil,-17.5189,-39.1958,Bahia,,23282,1076035694
Alcobaca,Alcobaça,PT,PRT,Portugal,39.5500,-8.9750,Leiria,minor,56693,1620702700
Alcobendas,Alcobendas,ES,ESP,Spain,40.5333,-3.6333,Madrid,,116589,1724354998
Alcochete,Alcochete,PT,PRT,Portugal,38.7553,-8.9608,Setúbal,minor,17569,1620781537
Alcora,Alcora,ES,ESP,Spain,40.0667,-0.2000,Valencia,,10428,1724288303
Alcorcon,Alcorcón,ES,ESP,Spain,40.3500,-3.8333,Madrid,,170817,1724318578
Alcover,Alcover,ES,ESP,Spain,41.2621,1.1711,Catalonia,,5185,1724993000
Alcoy,Alcoy,ES,ESP,Spain,38.6983,-0.4736,Valencia,,59128,1724702362
Alcoy,Alcoy,PH,PHL,Philippines,9.7082,123.5060,Cebu,,19186,1608968544
Alcudia,Alcudia,ES,ESP,Spain,39.8525,3.1192,Balearic Islands,,20651,1724681701
Aldama,Aldama,MX,MEX,Mexico,28.8386,-105.9111,Chihuahua,minor,18642,1484197521
Aldama,Aldama,MX,MEX,Mexico,22.9194,-98.0736,Tamaulipas,minor,13661,1484835121
Aldan,Aldan,RU,RUS,Russia,58.6000,125.3833,Sakha (Yakutiya),,20595,1643237106
Aldaya,Aldaya,ES,ESP,Spain,39.4639,-0.4628,Valencia,,32313,1724676507
Aldeamayor de San Martin,Aldeamayor de San Martín,ES,ESP,Spain,41.5167,-4.6333,Castille-Leon,,5789,1724752167
Aldeias Altas,Aldeias Altas,BR,BRA,Brazil,-4.6278,-43.4708,Maranhão,,23952,1076098052
Alden,Alden,US,USA,United States,42.9114,-78.5211,New York,,9995,1840004394
Aldenhoven,Aldenhoven,DE,DEU,Germany,50.8958,6.2831,North Rhine-Westphalia,,13807,1276558871
Aldershot,Aldershot,GB,GBR,United Kingdom,51.2480,-0.7580,Hampshire,,57211,1826766548
Alderwood Manor,Alderwood Manor,US,USA,United States,47.8147,-122.2672,Washington,,9579,1840017323
Aldine,Aldine,US,USA,United States,29.9122,-95.3785,Texas,,15318,1840018250
Aldingen,Aldingen,DE,DEU,Germany,48.0944,8.7058,Baden-Württemberg,,7555,1276705156
Aldo Bonzi,Aldo Bonzi,AR,ARG,Argentina,-34.7083,-58.5181,Buenos Aires,,18175,1032281187
Aldridge,Aldridge,GB,GBR,United Kingdom,52.6060,-1.9179,Walsall,,26988,1826685347
Alebtong,Alebtong,UG,UGA,Uganda,2.2447,33.2547,Alebtong,admin,,1800244501
Alecrim,Alecrim,BR,BRA,Brazil,-27.6550,-54.7639,Rio Grande do Sul,,7045,1076975182
Aledo,Aledo,US,USA,United States,32.6973,-97.6070,Texas,,8909,1840019418
Aleg,Aleg,MR,MRT,Mauritania,17.0580,-13.9090,Brakna,admin,8388,1478173139
Alegre,Alegre,BR,BRA,Brazil,-20.7639,-41.5328,Espírito Santo,,30768,1076514864
Alegrete,Alegrete,BR,BRA,Brazil,-29.7839,-55.7911,Rio Grande do Sul,,73028,1076174745
Alegria,Alegria,PH,PHL,Philippines,9.7243,123.3402,Cebu,,25620,1608812207
Alegria,Alegria,PH,PHL,Philippines,9.4640,125.5765,Surigao del Norte,,16184,1608913712
Aleksandrov,Aleksandrov,RU,RUS,Russia,56.3936,38.7150,Vladimirskaya Oblast’,,59328,1643014960
Aleksandrov Gay,Aleksandrov Gay,RU,RUS,Russia,50.1333,48.5500,Saratovskaya Oblast’,,9728,1643709614
Aleksandrovac,Aleksandrovac,RS,SRB,Serbia,43.4553,21.0514,Aleksandrovac,admin,,1688573505
Aleksandrovsk,Aleksandrovsk,RU,RUS,Russia,59.1667,57.5833,Permskiy Kray,,12222,1643050793
Aleksandrovsk-Sakhalinskiy,Aleksandrovsk-Sakhalinskiy,RU,RUS,Russia,50.9000,142.1500,Sakhalinskaya Oblast’,,9504,1643873847
Aleksandrovskoye,Aleksandrovskoye,RU,RUS,Russia,60.4286,77.8658,Tomskaya Oblast’,,6721,1643890319
Aleksandrow Kujawski,Aleksandrów Kujawski,PL,POL,Poland,52.8750,18.7000,Kujawsko-Pomorskie,minor,12359,1616651073
Aleksandrow Lodzki,Aleksandrów Łódzki,PL,POL,Poland,51.8167,19.3000,Łódzkie,,20342,1616531721
Alekseyevka,Alekseyevka,RU,RUS,Russia,50.6333,38.6833,Belgorodskaya Oblast’,,38329,1643033169
Aleksin,Aleksin,RU,RUS,Russia,54.5000,37.0667,Tul’skaya Oblast’,,57892,1643013998
Aleksinac,Aleksinac,RS,SRB,Serbia,43.5383,21.7047,Aleksinac,admin,,1688039133
Alella,Alella,ES,ESP,Spain,41.4953,2.2958,Catalonia,,9954,1724686640
Alem Paraiba,Além Paraíba,BR,BRA,Brazil,-21.8878,-42.7039,Minas Gerais,,35401,1076955526
Alencon,Alençon,FR,FRA,France,48.4306,0.0931,Normandie,minor,25775,1250000395
Alenquer,Alenquer,BR,BRA,Brazil,-1.9419,-54.7378,Pará,,54960,1076529970
Alenquer,Alenquer,PT,PRT,Portugal,39.0500,-9.0167,Lisboa,minor,43267,1620149244
Aleppo,Aleppo,SY,SYR,Syria,36.2000,37.1500,Ḩalab,admin,1916781,1760366651
Alerce,Alerce,CL,CHL,Chile,-41.3969,-72.9037,Los Lagos,,42267,1152663651
Ales,Alès,FR,FRA,France,44.1281,4.0817,Occitanie,minor,40802,1250908381
Alesd,Aleşd,RO,ROU,Romania,47.0572,22.3969,Bihor,,10066,1642008624
Alessandria,Alessandria,IT,ITA,Italy,44.9133,8.6200,Piedmont,minor,93980,1380334322
Alessano,Alessano,IT,ITA,Italy,39.8833,18.3333,Puglia,,6371,1380998799
Alesund,Ålesund,NO,NOR,Norway,62.4723,6.1549,Møre og Romsdal,minor,52163,1578050516
Alexander Bay,Alexander Bay,ZA,ZAF,South Africa,-28.6083,16.5033,Northern Cape,,1500,1710616152
Alexander City,Alexander City,US,USA,United States,32.9242,-85.9361,Alabama,,14317,1840013788
Alexandra,Alexandra,NZ,NZL,New Zealand,-45.2492,169.3797,Otago,,5475,1554972985
Alexandreia,Alexándreia,GR,GRC,Greece,40.6283,22.4454,Kentrikí Makedonía,minor,14821,1300981589
Alexandria,Alexandria,BR,BRA,Brazil,-6.4128,-38.0158,Rio Grande do Norte,,13507,1076254681
Alexandria,Alexandria,EG,EGY,Egypt,31.2000,29.9167,Al Iskandarīyah,admin,4870000,1818695837
Alexandria,Alexandria,GB,GBR,United Kingdom,55.9800,-4.5800,West Dunbartonshire,,6860,1826818723
Alexandria,Alexandria,RO,ROU,Romania,43.9686,25.3333,Teleorman,admin,45434,1642953190
Alexandria,Alexandria,US,USA,United States,38.8185,-77.0861,Virginia,,159428,1840003837
Alexandria,Alexandria,US,USA,United States,31.2923,-92.4702,Louisiana,,80129,1840013873
Alexandria,Alexandria,US,USA,United States,45.8777,-95.3766,Minnesota,,21204,1840006680
Alexandria,Alexandria,US,USA,United States,38.9621,-84.3860,Kentucky,,9715,1840013162
Alexandroupoli,Alexandroúpoli,GR,GRC,Greece,40.8500,25.8667,Anatolikí Makedonía kai Thráki,minor,57812,1300949419
Alexania,Alexânia,BR,BRA,Brazil,-16.0819,-48.5069,Goiás,,23814,1076561964
Aleysk,Aleysk,RU,RUS,Russia,52.5000,82.7833,Altayskiy Kray,,28528,1643212700
Alezio,Alezio,IT,ITA,Italy,40.0667,18.0500,Puglia,,5732,1380022966
Alfacar,Alfacar,ES,ESP,Spain,37.2333,-3.5667,Andalusia,,5497,1724345193
Alfafar,Alfafar,ES,ESP,Spain,39.4222,-0.3906,Valencia,,21415,1724290706
Alfajayucan,Alfajayucan,MX,MEX,Mexico,20.4000,-99.3500,Hidalgo,,16859,1484991912
Alfandega da Fe,Alfândega da Fé,PT,PRT,Portugal,41.3500,-6.9667,Bragança,minor,5104,1620280821
Alfaro,Alfaro,ES,ESP,Spain,42.1783,-1.7492,La Rioja,,9562,1724727631
Alfdorf,Alfdorf,DE,DEU,Germany,48.8453,9.7189,Baden-Württemberg,,7085,1276148569
Alfeld,Alfeld,DE,DEU,Germany,51.9886,9.8269,Lower Saxony,,18626,1276733070
Alfena,Alfena,PT,PRT,Portugal,41.2381,-8.5253,Porto,,20000,1620416709
Alfenas,Alfenas,BR,BRA,Brazil,-21.4289,-45.9469,Minas Gerais,,79481,1076300425
Alfonsine,Alfonsine,IT,ITA,Italy,44.5061,12.0411,Emilia-Romagna,,11953,1380940299
Alfonso,Alfonso,PH,PHL,Philippines,14.1379,120.8552,Cavite,,59306,1608847500
Alfonso Castaneda,Alfonso Castañeda,PH,PHL,Philippines,15.7940,121.3000,Nueva Vizcaya,,8539,1608693079
Alfortville,Alfortville,FR,FRA,France,48.8050,2.4239,Île-de-France,,44287,1250857642
Alfred,Alfred,US,USA,United States,42.2385,-77.7891,New York,,5035,1840004608
Alfred and Plantagenet,Alfred and Plantagenet,CA,CAN,Canada,45.5667,-74.9167,Ontario,,9680,1124001813
Alfredo Chaves,Alfredo Chaves,BR,BRA,Brazil,-20.6350,-40.7500,Espírito Santo,,13955,1076666348
Alfredo Wagner,Alfredo Wagner,BR,BRA,Brazil,-27.7000,-49.3339,Santa Catarina,,9410,1076900452
Alfter,Alfter,DE,DEU,Germany,50.7356,7.0092,North Rhine-Westphalia,,23622,1276256549
Alga,Alga,KZ,KAZ,Kazakhstan,49.9032,57.3350,Aqtöbe,minor,28267,1398920371
Algaida,Algaida,ES,ESP,Spain,39.5592,2.8947,Balearic Islands,,5963,1724787248
Algarrobo,Algarrobo,ES,ESP,Spain,36.7667,-4.0333,Andalusia,,6551,1724338220
Algeciras,Algeciras,CO,COL,Colombia,2.5219,-75.3144,Huila,minor,24708,1170438880
Algeciras,Algeciras,ES,ESP,Spain,36.1275,-5.4539,Andalusia,,122982,1724355681
Algemesi,Algemesí,ES,ESP,Spain,39.1897,-0.4378,Valencia,,27305,1724231513
Algermissen,Algermissen,DE,DEU,Germany,52.2544,9.9711,Lower Saxony,,7874,1276510572
Algete,Algete,ES,ESP,Spain,40.5978,-3.5003,Madrid,,20749,1724204700
Algeti,Algeti,GE,GEO,Georgia,41.4481,44.8953,Kvemo Kartli,,5017,1268133716
Alghero,Alghero,IT,ITA,Italy,40.5600,8.3150,Sardegna,,43964,1380434974
Algiers,Algiers,DZ,DZA,Algeria,36.7764,3.0586,Alger,primary,3415811,1012973369
Alginet,Alginet,ES,ESP,Spain,39.2625,-0.4683,Valencia,,13942,1724793089
Algodonales,Algodonales,ES,ESP,Spain,36.8811,-5.4056,Andalusia,,5526,1724901664
Algodones,Algodones,MX,MEX,Mexico,32.7153,-114.7289,Baja California,,6796,1484797126
Algona,Algona,US,USA,United States,43.0743,-94.2302,Iowa,,5397,1840000352
Algonquin,Algonquin,US,USA,United States,42.1629,-88.3159,Illinois,,30897,1840010110
Algrange,Algrange,FR,FRA,France,49.3594,6.0483,Grand Est,,6145,1250765730
Alguazas,Alguazas,ES,ESP,Spain,38.0514,-1.2414,Murcia,,9842,1724241306
Algur,Algūr,IN,IND,India,16.7000,76.3499,Karnātaka,,6448,1356816689
Alhama de Granada,Alhama de Granada,ES,ESP,Spain,37.0000,-3.9833,Andalusia,,5667,1724382207
Alhama de Murcia,Alhama de Murcia,ES,ESP,Spain,37.8514,-1.4264,Murcia,,22240,1724947627
Alhambra,Alhambra,US,USA,United States,34.0840,-118.1355,California,,83750,1840019222
Alhandra,Alhandra,BR,BRA,Brazil,-7.3504,-34.9284,Paraíba,,19238,1076719161
Alhaurin de la Torre,Alhaurín de la Torre,ES,ESP,Spain,36.6667,-4.5500,Andalusia,,41868,1724504346
Alhaurin el Grande,Alhaurín el Grande,ES,ESP,Spain,36.6331,-4.6831,Andalusia,,26095,1724876495
Alhendin,Alhendín,ES,ESP,Spain,37.1167,-3.6500,Andalusia,,9674,1724096901
Ali Ben Sliman,’Ali Ben Sliman,MA,MAR,Morocco,31.9053,-7.2144,Marrakech-Safi,,19977,1504127885
Ali Sabieh,Ali Sabieh,DJ,DJI,Djibouti,11.1558,42.7125,Ali Sabieh,admin,37939,1262104228
Aliaga,Aliaga,PH,PHL,Philippines,15.4988,120.8410,Nueva Ecija,,63543,1608044866
Aliaga,Aliağa,TR,TUR,Turkey,38.8008,26.9728,İzmir,minor,17578,1792034311
Alianca,Aliança,BR,BRA,Brazil,-7.6028,-35.2308,Pernambuco,,37415,1076773543
Alianca do Tocantins,Aliança do Tocantins,BR,BRA,Brazil,-11.3058,-48.9358,Tocantins,,5346,1076004970
Alibunar,Alibunar,RS,SRB,Serbia,45.0808,20.9658,Alibunar,admin,3431,1688248362
Alicante,Alicante,ES,ESP,Spain,38.3453,-0.4831,Valencia,minor,337304,1724923163
Alice,Alice,US,USA,United States,27.7556,-98.0653,Texas,,20510,1840019714
Alice Springs,Alice Springs,AU,AUS,Australia,-23.7000,133.8667,Northern Territory,,23726,1036830397
Alicia,Alicia,PH,PHL,Philippines,16.7787,121.6972,Isabela,,73874,1608136235
Alicia,Alicia,PH,PHL,Philippines,7.5060,122.9412,Zamboanga Sibugay,,39456,1608675842
Alicia,Alicia,PH,PHL,Philippines,9.8957,124.4415,Bohol,,24374,1608855246
Aligarh,Alīgarh,IN,IND,India,27.8800,78.0800,Uttar Pradesh,,1131160,1356076391
Aligudarz,Alīgūdarz,IR,IRN,Iran,33.4006,49.6947,Lorestān,minor,78690,1364252948
Alijo,Alijó,PT,PRT,Portugal,41.2764,-7.4749,Vila Real,minor,11942,1620658703
Alilem,Alilem,PH,PHL,Philippines,16.8869,120.5310,Ilocos Sur,,7361,1608934859
Alimodian,Alimodian,PH,PHL,Philippines,10.8196,122.4322,Iloilo,,39722,1608277073
Alipukur,Alipukur,IN,IND,India,22.2939,88.0750,West Bengal,,7533,1356251583
Alipur,Alipur,IN,IND,India,22.1936,88.4295,West Bengal,,5937,1356063143
Alipur Duar,Alīpur Duār,IN,IND,India,26.5000,89.5200,West Bengal,,65232,1356472105
Aliquippa,Aliquippa,US,USA,United States,40.6155,-80.2547,Pennsylvania,,8844,1840001009
Aliso Viejo,Aliso Viejo,US,USA,United States,33.5792,-117.7289,California,,50887,1840019321
Alitagtag,Alitagtag,PH,PHL,Philippines,13.8650,121.0063,Batangas,,26819,1608000702
Aliwal North,Aliwal North,ZA,ZAF,South Africa,-30.7000,26.7000,Eastern Cape,,44436,1710445896
Aljaraque,Aljaraque,ES,ESP,Spain,37.2667,-7.0167,Andalusia,,21706,1724459161
Aljezur,Aljezur,PT,PRT,Portugal,37.3178,-8.8000,Faro,minor,5884,1620758845
Aljustrel,Aljustrel,PT,PRT,Portugal,37.8833,-8.1667,Beja,minor,9257,1620079386
Alken,Alken,BE,BEL,Belgium,50.8761,5.3078,Flanders,,11626,1056681067
Alkhan-Kala,Alkhan-Kala,RU,RUS,Russia,43.2586,45.5392,Chechnya,,12340,1643152177
Alkhan-Yurt,Alkhan-Yurt,RU,RUS,Russia,43.2317,45.5722,Chechnya,,9783,1643086504
Alkhazurovo,Alkhazurovo,RU,RUS,Russia,43.0628,45.6511,Chechnya,,5534,1643617381
Alkmaar,Alkmaar,NL,NLD,Netherlands,52.6289,4.7440,Noord-Holland,minor,107822,1528566376
Alkoven,Alkoven,AT,AUT,Austria,48.2872,14.1069,Oberösterreich,,5961,1040330899
Allacapan,Allacapan,PH,PHL,Philippines,18.2270,121.5556,Cagayan,,35234,1608618208
Allahabad,Allahābād,IN,IND,India,25.4500,81.8500,Uttar Pradesh,,5954391,1356718332
Allahdurg,Allāhdurg,IN,IND,India,17.9667,77.9167,Telangana,,11018,1356302297
Allanmyo,Allanmyo,MM,MMR,Myanmar,19.3783,95.2279,Magway,,57897,1104582279
Allariz,Allariz,ES,ESP,Spain,42.1833,-7.8000,Galicia,,6314,1724983698
Allauch,Allauch,FR,FRA,France,43.3369,5.4828,Provence-Alpes-Côte d’Azur,,20860,1250339228
Allegan,Allegan,US,USA,United States,42.5299,-85.8462,Michigan,,6350,1840003114
Allegany,Allegany,US,USA,United States,42.0869,-78.5212,New York,,7612,1840004597
Allegheny,Allegheny,US,USA,United States,40.6151,-79.6439,Pennsylvania,,8091,1840151149
Allegheny,Allegheny,US,USA,United States,40.4583,-78.4768,Pennsylvania,,6553,1840152336
Allen,Allen,AR,ARG,Argentina,-38.9772,-67.8272,Río Negro,,22859,1032144191
Allen,Allen,PH,PHL,Philippines,12.5013,124.2820,Northern Samar,,25228,1608146334
Allen,Allen,US,USA,United States,33.1088,-96.6735,Texas,,105623,1840019396
Allen Park,Allen Park,US,USA,United States,42.2595,-83.2107,Michigan,,26940,1840003967
Allendale,Allendale,US,USA,United States,42.9851,-85.9509,Michigan,,21672,1840004345
Allendale,Allendale,US,USA,United States,41.0333,-74.1333,New Jersey,,6734,1840003550
Allende,Allende,MX,MEX,Mexico,28.3333,-100.8333,Coahuila de Zaragoza,minor,21376,1484737223
Allendorf,Allendorf,DE,DEU,Germany,51.0333,8.6833,Hesse,,5568,1276646580
Allensbach,Allensbach,DE,DEU,Germany,47.7153,9.0714,Baden-Württemberg,,7087,1276839809
Allentown,Allentown,US,USA,United States,40.5961,-75.4756,Pennsylvania,,683794,1840001044
Alleppey,Alleppey,IN,IND,India,9.5004,76.3700,Kerala,,176783,1356293762
Alleroy,Alleroy,RU,RUS,Russia,43.2500,46.1333,Chechnya,,13405,1643528710
Allersberg,Allersberg,DE,DEU,Germany,49.2500,11.2333,Bavaria,,8337,1276360092
Allershausen,Allershausen,DE,DEU,Germany,48.4250,11.5917,Bavaria,,5847,1276977657
Alliance,Alliance,US,USA,United States,40.9107,-81.1189,Ohio,,31255,1840000962
Alliance,Alliance,US,USA,United States,42.1025,-102.8766,Nebraska,,8092,1840006975
Allington,Allington,GB,GBR,United Kingdom,51.2903,0.5019,Kent,,7100,1826198624
Allison Park,Allison Park,US,USA,United States,40.5730,-79.9603,Pennsylvania,,23092,1840026468
Alliste,Alliste,IT,ITA,Italy,39.9500,18.0833,Puglia,,6702,1380884494
Alloa,Alloa,GB,GBR,United Kingdom,56.1160,-3.7930,Clackmannanshire,,14420,1826126712
Allonnes,Allonnes,FR,FRA,France,47.9686,0.1606,Pays de la Loire,,11075,1250722927
Allouez,Allouez,US,USA,United States,44.4721,-88.0261,Wisconsin,,13894,1840002346
Allschwil,Allschwil,CH,CHE,Switzerland,47.5508,7.5358,Basel-Landschaft,,21150,1756684864
Allstedt,Allstedt,DE,DEU,Germany,51.4000,11.3833,Saxony-Anhalt,,7745,1276620338
Allur,Allūr,IN,IND,India,14.6800,80.0600,Andhra Pradesh,,11768,1356190180
Alma,Alma,CA,CAN,Canada,48.5500,-71.6500,Quebec,,30904,1124138438
Alma,Alma,US,USA,United States,43.3800,-84.6556,Michigan,,16035,1840002879
Alma,Alma,US,USA,United States,35.4919,-94.2165,Arkansas,,5864,1840013420
Almacellas,Almacellas,ES,ESP,Spain,41.7317,0.4371,Catalonia,,6875,1724357907
Almacera,Almácera,ES,ESP,Spain,39.5117,-0.3561,Valencia,,7433,1724516026
Almada,Almada,PT,PRT,Portugal,38.6803,-9.1583,Setúbal,minor,174030,1620388276
Almaden,Almadén,ES,ESP,Spain,38.7764,-4.8369,Castille-La Mancha,,5105,1724335588
Almadina,Almadina,BR,BRA,Brazil,-14.7050,-39.6369,Bahia,,6145,1076681986
Almagro,Almagro,ES,ESP,Spain,38.8878,-3.7122,Castille-La Mancha,,8896,1724161420
Almagro,Almagro,PH,PHL,Philippines,11.9108,124.2852,Samar,,9273,1608267193
Almaguer,Almaguer,CO,COL,Colombia,1.9131,-76.8561,Cauca,minor,21374,1170307475
Almansa,Almansa,ES,ESP,Spain,38.8682,-1.0979,Castille-La Mancha,,24388,1724819701
Almargem,Almargem,PT,PRT,Portugal,38.8475,-9.2714,Lisboa,,8983,1620407856
Almas,Almas,BR,BRA,Brazil,-11.5739,-47.1700,Tocantins,,6979,1076222876
Almaty,Almaty,KZ,KAZ,Kazakhstan,43.2500,76.9000,Almaty,admin,1916822,1398351701
Almazan,Almazán,ES,ESP,Spain,41.3525,-2.5331,Castille-Leon,,5411,1724205111
Almazora,Almazora,ES,ESP,Spain,39.9403,-0.0625,Valencia,,26878,1724564412
Alme,Almè,IT,ITA,Italy,45.7369,9.6153,Lombardy,,5604,1380991253
Almeida,Almeida,PT,PRT,Portugal,40.7259,-6.9056,Guarda,minor,7242,1620083882
Almeirim,Almeirim,BR,BRA,Brazil,-1.5228,-52.5819,Pará,,33282,1076655786
Almeirim,Almeirim,PT,PRT,Portugal,39.2167,-8.6333,Santarém,minor,23376,1620738863
Almelo,Almelo,NL,NLD,Netherlands,52.3575,6.6667,Overijssel,minor,72459,1528084436
Almenara,Almenara,BR,BRA,Brazil,-16.1005,-40.7101,Minas Gerais,,41552,1076953924
Almenara,Almenara,ES,ESP,Spain,39.7533,-0.2256,Valencia,,6254,1724587561
Almendralejo,Almendralejo,ES,ESP,Spain,38.6833,-6.4167,Extremadura,,33741,1724000018
Almenno San Bartolomeo,Almenno San Bartolomeo,IT,ITA,Italy,45.7489,9.5797,Lombardy,,6247,1380800182
Almenno San Salvatore,Almenno San Salvatore,IT,ITA,Italy,45.7500,9.5875,Lombardy,,5677,1380789789
Almensilla,Almensilla,ES,ESP,Spain,37.3167,-6.1167,Andalusia,,6287,1724906416
Almere,Almere,NL,NLD,Netherlands,52.3758,5.2256,Flevoland,minor,207904,1528683566
Almeria,Almería,ES,ESP,Spain,36.8403,-2.4681,Andalusia,minor,200753,1724745640
Almeria,Almeria,PH,PHL,Philippines,11.6206,124.3794,Biliran,,17954,1608711562
Almese,Almese,IT,ITA,Italy,45.1167,7.4000,Piedmont,,6426,1380541477
Almetyevsk,Almetyevsk,RU,RUS,Russia,54.9000,52.3000,Tatarstan,,154262,1643421011
Almirante,Almirante,PA,PAN,Panama,9.3000,-82.4000,Bocas del Toro,minor,8114,1591293829
Almirante Tamandare,Almirante Tamandaré,BR,BRA,Brazil,-25.3250,-49.3100,Paraná,,103204,1076372357
Almodovar,Almodôvar,PT,PRT,Portugal,37.5114,-8.0603,Beja,minor,7449,1620933475
Almodovar del Campo,Almodóvar del Campo,ES,ESP,Spain,38.7186,-4.1667,Castille-La Mancha,,5947,1724170992
Almodovar del Rio,Almodóvar del Río,ES,ESP,Spain,37.8000,-5.0167,Andalusia,,8036,1724059168
Almolonga,Almolonga,GT,GTM,Guatemala,14.8122,-91.4944,Quetzaltenango,minor,17186,1320537455
Almoloya,Almoloya,MX,MEX,Mexico,19.7000,-98.4000,Hidalgo,minor,10638,1484494575
Almoloya de Alquisiras,Almoloya de Alquisiras,MX,MEX,Mexico,18.8500,-99.8500,México,minor,14196,1484855096
Almondbury,Almondbury,GB,GBR,United Kingdom,53.6344,-1.7489,Kirklees,,18346,1826676976
Almonte,Almonte,ES,ESP,Spain,37.2667,-6.5167,Andalusia,,24577,1724955448
Almora,Almora,IN,IND,India,29.6200,79.6700,Uttarakhand,,34122,1356045284
Almoradi,Almoradí,ES,ESP,Spain,38.1097,-0.7894,Valencia,,21404,1724624918
Almunecar,Almuñécar,ES,ESP,Spain,36.7339,-3.6911,Andalusia,,25890,1724549849
Almusafes,Almusafes,ES,ESP,Spain,39.2903,-0.4147,Valencia,,8984,1724698693
Almyros,Almyrós,GR,GRC,Greece,39.1803,22.7606,Thessalía,minor,7955,1300996538
Alnashi,Alnashi,RU,RUS,Russia,56.1874,52.4792,Udmurtiya,,5964,1643839918
Alness,Alness,GB,GBR,United Kingdom,57.6950,-4.2580,Highland,,5800,1826138078
Alnif,Alnif,MA,MAR,Morocco,31.1169,-5.1737,Drâa-Tafilalet,,22724,1504225472
Alnwick/Haldimand,Alnwick/Haldimand,CA,CAN,Canada,44.0833,-78.0333,Ontario,,6869,1124000698
Alofi,Alofi,NU,NIU,Niue,-19.0560,-169.9210,,primary,1611,1570882835
Aloguinsan,Aloguinsan,PH,PHL,Philippines,10.2229,123.5491,Cebu,,34466,1608628202
Aloha,Aloha,US,USA,United States,45.4920,-122.8726,Oregon,,54287,1840017414
Alondra Park,Alondra Park,US,USA,United States,33.8885,-118.3350,California,,8272,1840028356
Alor Setar,Alor Setar,MY,MYS,Malaysia,6.1167,100.3667,Kedah,admin,217000,1458273978
Aloran,Aloran,PH,PHL,Philippines,8.4146,123.8228,Misamis Occidental,,27934,1608445813
Alotau,Alotau,PG,PNG,Papua New Guinea,-10.3167,150.4333,Milne Bay,admin,11624,1598284215
Alotenango,Alotenango,GT,GTM,Guatemala,14.4878,-90.8058,Sacatepéquez,minor,17369,1320366805
Alougoum,Alougoum,MA,MAR,Morocco,30.2778,-6.8292,Souss-Massa,,8418,1504934074
Alovera,Alovera,ES,ESP,Spain,40.5967,-3.2481,Castille-La Mancha,,13051,1724090496
Alpedrete,Alpedrete,ES,ESP,Spain,40.6583,-4.0322,Madrid,,14959,1724547365
Alpen,Alpen,DE,DEU,Germany,51.5750,6.5125,North Rhine-Westphalia,,12463,1276474767
Alpena,Alpena,US,USA,United States,45.0740,-83.4399,Michigan,,13541,1840003947
Alpercata,Alpercata,BR,BRA,Brazil,-18.9739,-41.9700,Minas Gerais,,7436,1076855720
Alpestre,Alpestre,BR,BRA,Brazil,-27.2489,-53.0350,Rio Grande do Sul,,8027,1076725433
Alpharetta,Alpharetta,US,USA,United States,34.0704,-84.2739,Georgia,,67213,1840013659
Alphen aan den Rijn,Alphen aan den Rijn,NL,NLD,Netherlands,52.1333,4.6500,Zuid-Holland,minor,110986,1528593016
Alpiarca,Alpiarça,PT,PRT,Portugal,39.2593,-8.5850,Santarém,minor,7702,1620994582
Alpicat,Alpicat,ES,ESP,Spain,41.6681,0.5561,Catalonia,,6274,1724723386
Alpignano,Alpignano,IT,ITA,Italy,45.1000,7.5167,Piedmont,,16811,1380567274
Alpine,Alpine,US,USA,United States,32.8439,-116.7585,California,,14878,1840018014
Alpine,Alpine,US,USA,United States,40.4629,-111.7724,Utah,,10498,1840018755
Alpine,Alpine,US,USA,United States,30.3640,-103.6650,Texas,,6090,1840019580
Alpinopolis,Alpinópolis,BR,BRA,Brazil,-20.8639,-46.3878,Minas Gerais,,19741,1076981643
Alpirsbach,Alpirsbach,DE,DEU,Germany,48.3461,8.4039,Baden-Württemberg,,6304,1276323724
Alpnach,Alpnach,CH,CHE,Switzerland,46.9400,8.2733,Obwalden,,6031,1756321515
Alquizar,Alquízar,CU,CUB,Cuba,22.8067,-82.5828,Artemisa,minor,29616,1192960992
Alsbach-Hahnlein,Alsbach-Hähnlein,DE,DEU,Germany,49.7413,8.6225,Hesse,,9146,1276622371
Alsdorf,Alsdorf,DE,DEU,Germany,50.8744,6.1615,North Rhine-Westphalia,,47018,1276261156
Alsfeld,Alsfeld,DE,DEU,Germany,50.7511,9.2711,Hesse,,15989,1276584676
Alsip,Alsip,US,USA,United States,41.6701,-87.7368,Illinois,,18709,1840010147
Alsonemedi,Alsónémedi,HU,HUN,Hungary,47.3137,19.1665,Pest,,5235,1348709939
Alstahaug,Alstahaug,NO,NOR,Norway,65.9567,12.5728,Nordland,,7394,1578600009
Alstonville,Alstonville,AU,AUS,Australia,-28.8317,153.4344,New South Wales,,5739,1036379241
Alta,Alta,NO,NOR,Norway,69.9686,23.2714,Finnmark,minor,15342,1578308187
Alta Floresta,Alta Floresta,BR,BRA,Brazil,-9.8758,-56.0858,Mato Grosso,,50189,1076069666
Alta Floresta D'Oeste,Alta Floresta D’Oeste,BR,BRA,Brazil,-11.9283,-61.9950,Rondônia,,22728,1076909732
Alta Gracia,Alta Gracia,AR,ARG,Argentina,-31.6667,-64.4333,Córdoba,minor,48140,1032411567
Alta Sierra,Alta Sierra,US,USA,United States,39.1237,-121.0523,California,,7280,1840017553
Altach,Altach,AT,AUT,Austria,47.3500,9.6500,Vorarlberg,,6624,1040709033
Altadena,Altadena,US,USA,United States,34.1928,-118.1345,California,,44850,1840017918
Altafulla,Altafulla,ES,ESP,Spain,41.1433,1.3769,Catalonia,,5512,1724482163
Altagracia de Orituco,Altagracia de Orituco,VE,VEN,Venezuela,9.8504,-66.3800,Guárico,minor,40052,1862533029
Altamira,Altamira,BR,BRA,Brazil,-3.2028,-52.2058,Pará,,109938,1076710878
Altamira,Altamira,DO,DOM,Dominican Republic,19.6667,-70.8333,Cibao Norte,,18868,1214514689
Altamira,Altamira,MX,MEX,Mexico,22.3375,-97.8694,Tamaulipas,minor,59536,1484764524
Altamira do Maranhao,Altamira do Maranhão,BR,BRA,Brazil,-4.1650,-45.4700,Maranhão,,11063,1076746584
Altamirano,Altamirano,MX,MEX,Mexico,16.7361,-92.0389,Chiapas,minor,9200,1484175446
Altamont,Altamont,US,USA,United States,42.1981,-121.7249,Oregon,,19341,1840017440
Altamonte Springs,Altamonte Springs,US,USA,United States,28.6615,-81.3953,Florida,,44143,1840014072
Altamura,Altamura,IT,ITA,Italy,40.8167,16.5500,Puglia,,70514,1380125300
Altaneira,Altaneira,BR,BRA,Brazil,-7.0019,-39.7408,Ceará,,7344,1076634777
Altar,Altar,MX,MEX,Mexico,30.7136,-111.8353,Sonora,minor,8439,1484018181
Altata,Altata,MX,MEX,Mexico,24.6333,-107.9167,Sinaloa,,2001,1484699069
Altavas,Altavas,PH,PHL,Philippines,11.5333,122.4833,Aklan,,25639,1608142591
Altavilla Milicia,Altavilla Milicia,IT,ITA,Italy,38.0422,13.5503,Sicilia,,8340,1380722110
Altavilla Silentina,Altavilla Silentina,IT,ITA,Italy,40.5333,15.1333,Campania,,7083,1380406274
Altavilla Vicentina,Altavilla Vicentina,IT,ITA,Italy,45.5164,11.4597,Veneto,,12013,1380330182
Altay,Altay,CN,CHN,China,47.8666,88.1166,Xinjiang,minor,142000,1156855629
Altay,Altay,MN,MNG,Mongolia,46.3728,96.2572,Govĭ-Altay,admin,15800,1496574715
Altbach,Altbach,DE,DEU,Germany,48.7239,9.3797,Baden-Württemberg,,5967,1276249430
Altdorf,Altdorf,CH,CHE,Switzerland,46.8806,8.6394,Uri,admin,9401,1756957308
Altdorf,Altdorf,DE,DEU,Germany,48.5667,12.1167,Bavaria,,11215,1276813399
Altea,Altea,ES,ESP,Spain,38.5986,-0.0519,Valencia,,22657,1724509426
Altena,Altena,DE,DEU,Germany,51.3000,7.6667,North Rhine-Westphalia,,16922,1276575290
Altenbeken,Altenbeken,DE,DEU,Germany,51.7667,8.9333,North Rhine-Westphalia,,9147,1276435516
Altenberg,Altenberg,DE,DEU,Germany,50.7644,13.7578,Saxony,,7835,1276544160
Altenberge,Altenberge,DE,DEU,Germany,52.0458,7.4653,North Rhine-Westphalia,,10296,1276349933
Altenburg,Altenburg,DE,DEU,Germany,50.9850,12.4333,Thuringia,minor,32074,1276224301
Altendorf,Altendorf,CH,CHE,Switzerland,47.1922,8.8300,Schwyz,,7081,1756903406
Altenholz,Altenholz,DE,DEU,Germany,54.4000,10.1333,Schleswig-Holstein,,9986,1276597876
Altenkirchen,Altenkirchen,DE,DEU,Germany,50.6872,7.6456,Rhineland-Palatinate,minor,6263,1276616587
Altenkunstadt,Altenkunstadt,DE,DEU,Germany,50.1167,11.2500,Bavaria,,5383,1276292561
Altenstadt,Altenstadt,DE,DEU,Germany,50.2856,8.9450,Hesse,,12169,1276344597
Altenstadt,Altenstadt,DE,DEU,Germany,48.1667,10.1167,Bavaria,,5109,1276381157
Altensteig,Altensteig,DE,DEU,Germany,48.5864,8.6047,Baden-Württemberg,,10799,1276878570
Altentreptow,Altentreptow,DE,DEU,Germany,53.6927,13.2562,Mecklenburg-Western Pomerania,,5307,1276676254
Altepexi,Altepexi,MX,MEX,Mexico,18.3676,-97.3004,Puebla,minor,21100,1484498863
Alterosa,Alterosa,BR,BRA,Brazil,-21.2190,-46.1869,Minas Gerais,,14497,1076001106
Althengstett,Althengstett,DE,DEU,Germany,48.7233,8.7939,Baden-Württemberg,,7962,1276528069
Altinopolis,Altinópolis,BR,BRA,Brazil,-21.0231,-47.3728,São Paulo,,16179,1076728807
Altkirch,Altkirch,FR,FRA,France,47.6231,7.2394,Grand Est,minor,5698,1250849056
Altlandsberg,Altlandsberg,DE,DEU,Germany,52.5667,13.7331,Brandenburg,,9662,1276344426
Altlussheim,Altlußheim,DE,DEU,Germany,49.2997,8.5000,Baden-Württemberg,,6133,1276868250
Altmannstein,Altmannstein,DE,DEU,Germany,48.9000,11.6500,Bavaria,,7001,1276393254
Altmunster,Altmünster,AT,AUT,Austria,47.9000,13.7667,Oberösterreich,,9793,1040325018
Alto Alegre dos Parecis,Alto Alegre dos Parecis,BR,BRA,Brazil,-12.1278,-61.8508,Rondônia,,13255,1076019248
Alto Araguaia,Alto Araguaia,BR,BRA,Brazil,-17.3150,-53.2150,Mato Grosso,,18164,1076823641
Alto del Carmen,Alto del Carmen,CL,CHL,Chile,-28.9336,-70.4623,Atacama,,5299,1152641971
Alto do Rodrigues,Alto do Rodrigues,BR,BRA,Brazil,-5.2878,-36.7619,Rio Grande do Norte,,12305,1076256231
Alto Garcas,Alto Garças,BR,BRA,Brazil,-16.9439,-53.5278,Mato Grosso,,11532,1076413625
Alto Hospicio,Alto Hospicio,CL,CHL,Chile,-20.2500,-70.1167,Tarapacá,,108375,1152536354
Alto Longa,Alto Longá,BR,BRA,Brazil,-5.2508,-42.2100,Piauí,,13646,1076773885
Alto Paraguai,Alto Paraguai,BR,BRA,Brazil,-14.5139,-56.4828,Mato Grosso,,10921,1076220577
Alto Paraiso de Goias,Alto Paraíso de Goiás,BR,BRA,Brazil,-14.1328,-47.5100,Goiás,,6885,1076966405
Alto Parana,Alto Paraná,BR,BRA,Brazil,-23.1289,-52.3189,Paraná,,13663,1076148940
Alto Parnaiba,Alto Parnaíba,BR,BRA,Brazil,-9.1108,-45.9300,Maranhão,,10766,1076860492
Alto Piquiri,Alto Piquiri,BR,BRA,Brazil,-24.0278,-53.4408,Paraná,,9778,1076224592
Alto Rio Doce,Alto Rio Doce,BR,BRA,Brazil,-21.0258,-43.4108,Minas Gerais,,10859,1076504433
Alto Rio Senguer,Alto Río Senguer,AR,ARG,Argentina,-45.0419,-70.8234,Chubut,minor,1570,1032532362
Alto Santo,Alto Santo,BR,BRA,Brazil,-5.5208,-38.2719,Ceará,,16876,1076376148
Alto-Cuilo,Alto-Cuilo,AO,AGO,Angola,-10.0500,19.5167,Lunda Sul,,21004,1024029875
Altofonte,Altofonte,IT,ITA,Italy,38.0500,13.3000,Sicilia,,10218,1380191830
Altofts,Altofts,GB,GBR,United Kingdom,53.6970,-1.4160,Wakefield,,6198,1826413238
Altomunster,Altomünster,DE,DEU,Germany,48.3833,11.2500,Bavaria,,7925,1276488416
Alton,Alton,US,USA,United States,38.9034,-90.1523,Illinois,,78905,1840007424
Alton,Alton,US,USA,United States,26.2884,-98.3098,Texas,,18105,1840019733
Alton,Alton,US,USA,United States,43.4906,-71.2462,New Hampshire,,5303,1840054507
Altonia,Altônia,BR,BRA,Brazil,-23.8739,-53.9019,Paraná,,20516,1076528546
Altoona,Altoona,US,USA,United States,40.5082,-78.4007,Pennsylvania,,74829,1840001080
Altoona,Altoona,US,USA,United States,41.6481,-93.4784,Iowa,,19221,1840007065
Altoona,Altoona,US,USA,United States,44.8029,-91.4385,Wisconsin,,7870,1840002295
Altopascio,Altopascio,IT,ITA,Italy,43.8167,10.6747,Tuscany,,15572,1380450023
Altos,Altos,BR,BRA,Brazil,-5.0389,-42.4608,Piauí,,38822,1076874326
Altos del Rosario,Altos del Rosario,CO,COL,Colombia,8.7914,-74.1636,Bolívar,minor,13669,1170079040
Altotting,Altötting,DE,DEU,Germany,48.2264,12.6759,Bavaria,minor,10119,1276161581
Altrincham,Altrincham,GB,GBR,United Kingdom,53.3838,-2.3547,Trafford,,52419,1826280426
Altrip,Altrip,DE,DEU,Germany,49.4325,8.5036,Rhineland-Palatinate,,7602,1276170670
Altstatten,Altstätten,CH,CHE,Switzerland,47.3780,9.5488,Sankt Gallen,minor,11730,1756529261
Altud,Altud,RU,RUS,Russia,43.7181,43.8722,Kabardino-Balkariya,,5554,1643002495
Altus,Altus,US,USA,United States,34.6566,-99.3051,Oklahoma,,18418,1840019202
Altusried,Altusried,DE,DEU,Germany,47.8000,10.2167,Bavaria,,10086,1276723201
Alubijid,Alubijid,PH,PHL,Philippines,8.5714,124.4751,Misamis Oriental,,32163,1608269125
Aluksne,Alūksne,LV,LVA,Latvia,57.4239,27.0503,Alūksnes Novads,admin,6535,1428873095
Alum Rock,Alum Rock,US,USA,United States,37.3695,-121.8241,California,,11551,1840017638
Alushta,Alushta,UA,UKR,Ukraine,44.6672,34.3978,"Krym, Avtonomna Respublika",,29668,1804773543
Alva,Alva,US,USA,United States,36.7892,-98.6648,Oklahoma,,5628,1840018976
Alvaiazere,Alvaiázere,PT,PRT,Portugal,39.8333,-8.3833,Leiria,minor,7287,1620636770
Alvarado,Alvarado,CO,COL,Colombia,4.5672,-74.9533,Tolima,minor,8873,1170398878
Alvarado,Alvarado,MX,MEX,Mexico,18.7811,-95.7572,Veracruz,minor,52927,1484208918
Alvaraes,Alvarães,BR,BRA,Brazil,-3.2000,-64.8333,Amazonas,,15545,1076076112
Alvares Machado,Álvares Machado,BR,BRA,Brazil,-22.0789,-51.4719,São Paulo,,24651,1076095632
Alvaro de Carvalho,Álvaro de Carvalho,BR,BRA,Brazil,-22.0797,-49.7197,São Paulo,,5030,1076135695
Alveringem,Alveringem,BE,BEL,Belgium,51.0111,2.7108,Flanders,,5089,1056520266
Alvin,Alvin,US,USA,United States,29.3871,-95.2933,Texas,,26723,1840019671
Alvinopolis,Alvinópolis,BR,BRA,Brazil,-20.1069,-43.0489,Minas Gerais,,15169,1076309584
Alvorada,Alvorada,BR,BRA,Brazil,-29.9900,-51.0839,Rio Grande do Sul,,195673,1076999998
Alvorada,Alvorada,BR,BRA,Brazil,-12.4800,-49.1250,Tocantins,,8374,1076121080
Alvorada D'Oeste,Alvorada D’Oeste,BR,BRA,Brazil,-11.3417,-62.2861,Rondônia,,14106,1076530041
Alvorada do Norte,Alvorada do Norte,BR,BRA,Brazil,-14.4808,-46.4919,Goiás,,8084,1076404398
Alvorada do Sul,Alvorada do Sul,BR,BRA,Brazil,-22.7800,-51.2308,Paraná,,10283,1076000190
Alwar,Alwar,IN,IND,India,27.5667,76.6167,Rājasthān,,341422,1356570855
Alytus,Alytus,LT,LTU,Lithuania,54.4014,24.0492,Alytaus Miestas,admin,49888,1440273296
Alzamay,Alzamay,RU,RUS,Russia,55.5500,98.6667,Irkutskaya Oblast’,,5908,1643351432
Alzano Lombardo,Alzano Lombardo,IT,ITA,Italy,45.7317,9.7283,Lombardy,,13637,1380900977
Alzenau in Unterfranken,Alzenau in Unterfranken,DE,DEU,Germany,50.0835,9.0669,Bavaria,,18469,1276942017
Alzey,Alzey,DE,DEU,Germany,49.7517,8.1161,Rhineland-Palatinate,minor,18535,1276680173
Am-Timan,Am-Timan,TD,TCD,Chad,11.0333,20.2833,Salamat,admin,38261,1148823427
Ama,Ama,JP,JPN,Japan,35.1884,136.8037,Aichi,,87668,1392003383
Amadaguru,Amadagūru,IN,IND,India,13.8886,78.0217,Andhra Pradesh,,6818,1356622138
Amadeo,Amadeo,PH,PHL,Philippines,14.1728,120.9277,Cavite,,41901,1608636193
Amadora,Amadora,PT,PRT,Portugal,38.7500,-9.2333,Lisboa,minor,175136,1620896557
Amaga,Amagá,CO,COL,Colombia,6.0383,-75.7028,Antioquia,minor,30376,1170092259
Amagasaki,Amagasaki,JP,JPN,Japan,34.7333,135.4000,Hyōgo,,450506,1392003182
Amagi,Amagi,JP,JPN,Japan,27.8092,128.8978,Okinawa,,5465,1392316482
Amahai,Amahai,ID,IDN,Indonesia,-3.3331,128.9190,Maluku,minor,47653,1360767250
Amakusa,Amakusa,JP,JPN,Japan,32.4586,130.1931,Kumamoto,,74861,1392003308
Amalapuram,Amalāpuram,IN,IND,India,16.5833,82.0167,Andhra Pradesh,,53231,1356997622
Amalfi,Amalfi,CO,COL,Colombia,6.9092,-75.0767,Antioquia,minor,22714,1170542286
Amalfi,Amalfi,IT,ITA,Italy,40.6333,14.6028,Campania,,5102,1380503863
Amalou,Amalou,DZ,DZA,Algeria,36.4778,4.6333,Bejaïa,,8602,1012045463
Amambai,Amambaí,BR,BRA,Brazil,-23.1039,-55.2258,Mato Grosso do Sul,,38030,1076013576
Amami,Amami,JP,JPN,Japan,28.3772,129.4939,Okinawa,,41049,1392003169
Amantea,Amantea,IT,ITA,Italy,39.1333,16.0667,Calabria,,13975,1380959246
Amapa,Amapá,BR,BRA,Brazil,2.0528,-50.7928,Amapá,,8622,1076834242
Amapora,Amaporã,BR,BRA,Brazil,-23.0958,-52.7878,Paraná,,5443,1076793717
Amara,Amara,RO,ROU,Romania,44.6200,27.3200,Ialomiţa,,7345,1642292368
Amaraji,Amaraji,BR,BRA,Brazil,-8.3758,-35.4522,Pernambuco,,21939,1076105357
Amaral Ferrador,Amaral Ferrador,BR,BRA,Brazil,-30.8750,-52.2528,Rio Grande do Sul,,6353,1076882155
Amarante,Amarante,BR,BRA,Brazil,-6.2408,-42.8550,Piauí,,17135,1076771383
Amarante,Amarante,PT,PRT,Portugal,41.2667,-8.0833,Porto,minor,56264,1620688725
Amarante do Maranhao,Amarante do Maranhão,BR,BRA,Brazil,-5.5669,-46.7419,Maranhão,,37932,1076306284
Amarapura,Amarapura,MM,MMR,Myanmar,21.8530,96.0954,Mandalay,,23200,1104567036
Amarapuuram,Amarāpuuram,IN,IND,India,14.1333,76.9833,Karnātaka,,11950,1356001353
Amaravati,Amarāvati,IN,IND,India,16.5730,80.3580,Andhra Pradesh,,13400,1356116050
Amarchinta,Amarchinta,IN,IND,India,16.3740,77.7729,Telangana,,11225,1356070260
Amares,Amares,PT,PRT,Portugal,41.6333,-8.3500,Braga,minor,18889,1620212427
Amargosa,Amargosa,BR,BRA,Brazil,-13.0300,-39.6050,Bahia,,37807,1076608607
Amarillo,Amarillo,US,USA,United States,35.1988,-101.8311,Texas,,205603,1840019156
Amarkantak,Amarkantak,IN,IND,India,22.6751,81.7596,Madhya Pradesh,,7074,1356062517
Amarzgane,Amarzgane,MA,MAR,Morocco,31.0500,-7.2167,Drâa-Tafilalet,,8820,1504948640
